[{"id":"applegreen:gcq044g47vhh","brand":"applegreen","name":"AppleGreen","address":"Ross Road, Hereford","pc":"HR2 7RJ","lat":52.04677,"lng":-2.720323,"px":{"B7":143.8,"E5":149.8,"E10":134.8}},{"id":"applegreen:gcq11edvjb28","brand":"applegreen","name":"AppleGreen","address":"A44 Bargates, Leominster","pc":"HR6 8EY","lat":52.227117,"lng":-2.742558,"px":{"B7":148.8,"E5":156.8,"E10":141.8}},{"id":"applegreen:gcq5yscqvvvr","brand":"applegreen","name":"AppleGreen","address":"Shawbirch Crossroads, Telford","pc":"TF1 3QA","lat":52.717713,"lng":-2.524885,"px":{"B7":142.8}},{"id":"applegreen:gcqd6w8fmjqp","brand":"applegreen","name":"AppleGreen","address":"Hagley Road West, Birmingham","pc":"B32 2AL","lat":52.462879,"lng":-1.998259,"px":{"E5":151.8,"E10":136.8}},{"id":"applegreen:gcqdcf2xqyy1","brand":"applegreen","name":"AppleGreen","address":"232 Whitehall road, Tipton","pc":"DY4 7EX","lat":52.528289,"lng":-2.031486,"px":{"B7":142.8,"E10":135.8}},{"id":"applegreen:gcqdex003p1p","brand":"applegreen","name":"AppleGreen","address":"122 Holyhead Road, Birmingham","pc":"B21 0LL","lat":52.509237,"lng":-1.955522,"px":{"B7":144.8,"E5":151.8,"E10":137.8}},{"id":"applegreen:gcqdfjdub1k2","brand":"applegreen","name":"AppleGreen","address":"Holloway Bank, Wednesbury","pc":"WS10 0NP","lat":52.545683,"lng":-2.017702,"px":{"B7":145.8}},{"id":"applegreen:gcqdmfucrgyx","brand":"applegreen","name":"AppleGreen","address":"Stratford Road, Birmingham","pc":"B28 8BN","lat":52.4421,"lng":-1.849825,"px":{"B7":143.8}},{"id":"applegreen:gcqdmx4ghd51","brand":"applegreen","name":"AppleGreen","address":"Small Heath Highway, Birmingham","pc":"B10 0AE","lat":52.465736,"lng":-1.863702,"px":{"B7":146.8,"E10":139.8}},{"id":"applegreen:gcqdmx4vbbt3","brand":"applegreen","name":"AppleGreen","address":"Small Heath Highway, Birmingham","pc":"B10 0AE","lat":52.4662,"lng":-1.86386,"px":{"E10":139.8,"B7":146.8}},{"id":"applegreen:gcqdvnk62zp6","brand":"applegreen","name":"AppleGreen","address":"551 Kingstanding Road, Birmingham","pc":"B44 9TD","lat":52.549405,"lng":-1.88377,"px":{"B7":143.8,"E10":136.8}},{"id":"applegreen:gcqe73z3bnnz","brand":"applegreen","name":"AppleGreen","address":"Lichfield Road, Walsall","pc":"WS4 1PQ","lat":52.612486,"lng":-1.956587,"px":{"B7":143.8,"E10":137.8}},{"id":"applegreen:gcqfhy6pr8qx","brand":"applegreen","name":"AppleGreen","address":"Holyhead Road Service Station, Coventry","pc":"CV5 8ND","lat":52.418392,"lng":-1.545995,"px":{"B7":146.8,"E10":140.8}},{"id":"applegreen:gcqfwqvvmuhx","brand":"applegreen","name":"AppleGreen","address":"Bedworth Service Station, Nuneaton","pc":"CV10 7DA","lat":52.508706,"lng":-1.475005,"px":{"B7":147.8,"SDV":162.8}},{"id":"applegreen:gcqfzgmq7vh0","brand":"applegreen","name":"AppleGreen","address":"A5 Watling Street, Hinckley","pc":"LE10 3ED","lat":52.533601,"lng":-1.40986,"px":{"B7":144.8,"E10":138.8}},{"id":"applegreen:gcqmy04ug1ef","brand":"applegreen","name":"AppleGreen","address":"Waterloo Road, Stoke on Trent","pc":"ST6 2EH","lat":53.042816,"lng":-2.193355,"px":{"B7":142.8}},{"id":"applegreen:gcqu6ktbnppj","brand":"applegreen","name":"AppleGreen","address":"1 Wellington Road, Burton","pc":"DE14 2AP","lat":52.803078,"lng":-1.650772,"px":{"B7":147.9,"SDV":165.9,"E5":156.9,"E10":140.9}},{"id":"applegreen:gcr5qw8hj0tb","brand":"applegreen","name":"AppleGreen","address":"131 Humberstone Road, Leicester","pc":"LE5 3AD","lat":52.638934,"lng":-1.120383,"px":{"B7":145.8,"E5":155.8,"E10":140.8}},{"id":"applegreen:gcrfgnmzstum","brand":"applegreen","name":"AppleGreen","address":"Whittlesey Road, Peterborough","pc":"PE2 8RR","lat":52.5503,"lng":-0.211631,"px":{"E10":136.8,"E5":152.8}},{"id":"applegreen:gcrj646s0xk1","brand":"applegreen","name":"AppleGreen","address":"Derby Road, Ilkeston","pc":"DE7 5FH","lat":52.967187,"lng":-1.314899,"px":{"B7":142.8,"E5":155.8,"E10":137.8}},{"id":"applegreen:gcx0kbwgbkw1","brand":"applegreen","name":"AppleGreen","address":"Edlington Lane, Doncaster","pc":"DN12 1BS","lat":53.48486,"lng":-1.188221,"px":{"B7":144.8,"SDV":159.8,"E10":135.8}},{"id":"applegreen:gcx0w227tm7n","brand":"applegreen","name":"AppleGreen","address":"Doncaster St George Service Station, Doncaster","pc":"DN1 2RE","lat":53.527394,"lng":-1.131019,"px":{"B7":145.8,"SDV":160.8,"E10":136.8}},{"id":"applegreen:u1243hdmundq","brand":"applegreen","name":"AppleGreen","address":"22 West Park Street, Chatteris","pc":"PE16 6AJ","lat":52.4525,"lng":0.04721,"px":{"E10":137.8,"E5":152.8,"B7":143.8}},{"id":"asda:gcnpmkk63zx2","brand":"asda","name":"Esso","address":"Ledbury Road, Ross-on-Wye","pc":"HR9 7QJ","lat":51.927599,"lng":-2.569192,"px":{"E10":164.9,"E5":183.9,"B7":197.9,"SDV":216.9}},{"id":"asda:gcq0453snztq","brand":"asda","name":"Asda","address":"Belmont Road, Hereford","pc":"HR2 7JE","lat":52.04896,"lng":-2.72019,"px":{"E10":154.7,"B7":188.7}},{"id":"asda:gcq04n9u37v6","brand":"asda","name":"Asda Express","address":"Holmer Road, Hereford","pc":"HR4 9RX","lat":52.067688,"lng":-2.722474,"px":{"E10":154.9,"E5":170.9,"B7":188.9,"SDV":204.9}},{"id":"asda:gcq2nyq4u3tt","brand":"asda","name":"BP","address":"Junction 8, M5, Strensham","pc":"WR8 0BZ","lat":52.06663,"lng":-2.158333,"px":{"E10":185.9,"E5":204.9,"B7":199.9,"SDV":218.9}},{"id":"asda:gcq36pwjefw1","brand":"asda","name":"Esso","address":"Worecester Road, Worcester","pc":"WR6 6HU","lat":52.293133,"lng":-2.364637,"px":{"E10":159.9,"B7":193.9}},{"id":"asda:gcq3tt0pr9f9","brand":"asda","name":"Esso","address":"Crown Lane, Waresley","pc":"DY11 7XP","lat":52.323471,"lng":-2.232881,"px":{"E10":160.9,"E5":179.9,"B7":197.9,"SDV":216.9}},{"id":"asda:gcq3u0qrm6mm","brand":"asda","name":"Esso","address":"Vale Road, Stourport-on-Severn","pc":"DY13 8YJ","lat":52.341684,"lng":-2.276549,"px":{"E10":160.9,"E5":179.9,"B7":195.9,"SDV":214.9}},{"id":"asda:gcq5r9qevdm6","brand":"asda","name":"Asda Express","address":"Ironbridge Road, Broseley","pc":"TF12 5DJ","lat":52.609625,"lng":-2.473815,"px":{"E10":162.9,"E5":178.9,"B7":194.9,"SDV":210.9}},{"id":"asda:gcq5zsg00b1u","brand":"asda","name":"BP","address":"Hadley Park East, Telford","pc":"TF1 6QJ","lat":52.717689,"lng":-2.477645,"px":{"E10":162.9,"E5":181.9,"B7":197.9,"SDV":216.9}},{"id":"asda:gcq6c6m78jnx","brand":"asda","name":"Esso","address":"Chartwell Business Park, Stourbridge","pc":"WV15 6AN","lat":52.527636,"lng":-2.398787,"px":{"E10":163.9,"E5":182.9,"B7":197.9,"SDV":216.9}},{"id":"asda:gcq6h75932he","brand":"asda","name":"Esso","address":"Franche Road, Kidderminster","pc":"DY11 5BL","lat":52.399906,"lng":-2.270075,"px":{"E10":159.9,"E5":178.9,"B7":196.9,"SDV":215.9}},{"id":"asda:gcq6r79nv6c6","brand":"asda","name":"Esso","address":"156 Hagley Road, Dudley","pc":"DY8 2JL","lat":52.447157,"lng":-2.140733,"px":{"E10":156.9,"E5":175.9,"B7":189.9,"SDV":208.9}},{"id":"asda:gcq6xcxxq7z0","brand":"asda","name":"Asda","address":"Merryhill Centre, Dudley","pc":"DY5 1QL","lat":52.476011,"lng":-2.10749,"px":{"E10":154.7,"B7":188.7}},{"id":"asda:gcq6xf23nj93","brand":"asda","name":"Asda","address":"Pearson Street, Brierley Hill","pc":"DY5 3BJ","lat":52.481396,"lng":-2.117811,"px":{"E10":153.7,"B7":188.7}},{"id":"asda:gcq78jqcbz2y","brand":"asda","name":"Asda","address":"Malinsgate, Telford","pc":"TF3 4HZ","lat":52.676235,"lng":-2.45129,"px":{"E10":159.9,"B7":189.9}},{"id":"asda:gcq7be78u09d","brand":"asda","name":"Asda","address":"St Georges Road, Telford","pc":"TF2 7RX","lat":52.708135,"lng":-2.432238,"px":{"E10":159.9,"B7":189.9}},{"id":"asda:gcq7ndjty65j","brand":"asda","name":"Esso","address":"220/230 Coalway Road, Wolverhampton","pc":"WV3 7NN","lat":52.570578,"lng":-2.167467,"px":{"E10":156.9,"E5":175.9,"B7":195.9,"SDV":214.9}},{"id":"asda:gcq7pw1sgfq9","brand":"asda","name":"Asda","address":"Jack Hayward Way - Waterloo Road, Wolverhampton","pc":"WV1 4DE","lat":52.59238,"lng":-2.129117,"px":{"E10":148.9,"B7":181.9}},{"id":"asda:gcq7qhd1msfg","brand":"asda","name":"Esso","address":"Wolverhampton Road, Codsall","pc":"WV8 1PD","lat":52.624197,"lng":-2.186554,"px":{"E10":155.9,"E5":174.9,"B7":191.9,"SDV":210.9}},{"id":"asda:gcq7rwhkh4y7","brand":"asda","name":"Esso","address":"Stafford Rd, Wolverhampton","pc":"WV10 7ER","lat":52.636519,"lng":-2.125695,"px":{"E10":156.9,"E5":175.9,"B7":194.9,"SDV":213.9}},{"id":"asda:gcq7zucnpxwk","brand":"asda","name":"Texaco","address":"Wolverhampton Road, Stafford","pc":"ST19 5NS","lat":52.717336,"lng":-2.118524,"px":{"E10":156.9,"E5":174.9,"B7":189.9}},{"id":"asda:gcq87z4wjexx","brand":"asda","name":"Texaco","address":"A46 Evesham Bypass, Evesham","pc":"WR11 4TP","lat":52.113392,"lng":-1.939462,"px":{"E10":159.9,"E5":177.9,"B7":193.9}},{"id":"asda:gcq891cmvuyg","brand":"asda","name":"Shell","address":"Abbey View, B4083, Pershore","pc":"WR10 2DT","lat":52.129766,"lng":-2.063457,"px":{"E10":151.9,"E5":170.9,"B7":192.9,"SDV":211.9}},{"id":"asda:gcq9c6tkqz9g","brand":"asda","name":"Esso","address":"258 Birmingham Road, Bromsgrove","pc":"B61 0HA","lat":52.353458,"lng":-2.046893,"px":{"E10":157.9,"E5":176.9,"B7":194.9,"SDV":213.9}},{"id":"asda:gcqbyjxpf4j9","brand":"asda","name":"Esso","address":"Banbury Road, Warwick","pc":"CV35 0HA","lat":52.183888,"lng":-1.465674,"px":{"E10":162.9,"E5":181.9,"B7":197.9,"SDV":216.9}},{"id":"asda:gcqc7sjxr5e8","brand":"asda","name":"Esso","address":"54 Stratford Road, Warwick","pc":"CV34 6AT","lat":52.274042,"lng":-1.596274,"px":{"E10":159.9,"E5":178.9,"B7":197.9,"SDV":216.9}},{"id":"asda:gcqcbpu2em9t","brand":"asda","name":"Esso","address":"Widney Road, Solihull","pc":"B93 9DZ","lat":52.38176,"lng":-1.75193,"px":{"E10":159.9,"E5":178.9,"B7":197.9,"SDV":216.9}},{"id":"asda:gcqckz9jsnpd","brand":"asda","name":"Asda","address":"130 Rugby Road, Leamington Spa, Warwickshire","pc":"CV32 6DN","lat":52.293152,"lng":-1.547517,"px":{"E10":155.7,"B7":186.7}},{"id":"asda:gcqcms84yu1u","brand":"asda","name":"Asda","address":"Chesterton Drive, Leamington Spa","pc":"CV31 1YD","lat":52.27619,"lng":-1.515821,"px":{"E10":155.7,"B7":186.7}},{"id":"asda:gcqd6fyv9z95","brand":"asda","name":"Asda","address":"51 Barnes Hill, Birmingham","pc":"B29 5UP","lat":52.442849,"lng":-1.979179,"px":{"E10":153.7,"B7":185.7}},{"id":"asda:gcqd7tf0strm","brand":"asda","name":"Asda Express","address":"261-263 High Street, Birmingham","pc":"B17 9QG","lat":52.458534,"lng":-1.952598,"px":{"E10":156.9,"E5":172.9,"B7":188.9,"SDV":204.9}},{"id":"asda:gcqdcfg6862x","brand":"asda","name":"Asda","address":"Brickhouse Lane, Tipton","pc":"DY4 7HW","lat":52.530902,"lng":-2.026537,"px":{"E10":154.9,"B7":188.9}},{"id":"asda:gcqdcjw7qgwg","brand":"asda","name":"Asda","address":"Wednesbury Oak Road, Tipton","pc":"DY4 0BP","lat":52.544378,"lng":-2.05604,"px":{"E10":153.9,"B7":185.9}},{"id":"asda:gcqdd59f012j","brand":"asda","name":"Asda","address":"Wolverhampton Road, Oldbury","pc":"B69 4PU","lat":52.492799,"lng":-2.01746,"px":{"E10":156.7,"B7":188.7}},{"id":"asda:gcqdms5s6e35","brand":"asda","name":"Esso","address":"Stratford Road, Birmingham","pc":"B11 4AR","lat":52.449478,"lng":-1.86276,"px":{"E10":159.9,"E5":178.9,"B7":195.9,"SDV":214.9}},{"id":"asda:gcqdnmsbb6tj","brand":"asda","name":"Asda","address":"Parkgate, Stratford Road, Shirley, Solihull","pc":"B90 3GG","lat":52.412981,"lng":-1.829452,"px":{"E10":152.9,"B7":184.9}},{"id":"asda:gcqdpt3r0s4v","brand":"asda","name":"Esso","address":"94-96 High Street, Solihull","pc":"B91 1BB","lat":52.406087,"lng":-1.859746,"px":{"E10":151.9,"E5":170.9,"B7":185.9,"SDV":204.9}},{"id":"asda:gcqdq732ds3r","brand":"asda","name":"Esso","address":"Fox Hollies Road, Birmingham","pc":"B27 7US","lat":52.44472,"lng":-1.83289,"px":{"E10":155.9,"E5":174.9,"B7":189.9,"SDV":208.9}},{"id":"asda:gcqdqnf6dbjr","brand":"asda","name":"Asda","address":"859 Coventry Road, Small Heath","pc":"B10 0HH","lat":52.464267,"lng":-1.842488,"px":{"E10":153.9,"B7":185.7}},{"id":"asda:gcqdr7kdqqrx","brand":"asda","name":"Esso","address":"Hobs Moat Road, Birmingham","pc":"B92 8JN","lat":52.445191,"lng":-1.78493,"px":{"E10":156.9,"E5":175.9,"B7":193.9,"SDV":212.9}},{"id":"asda:gcqdsgr183jg","brand":"asda","name":"Esso","address":"305 Corporation Street, Birmingham","pc":"B4 7DT","lat":52.488816,"lng":-1.89097,"px":{"E10":159.9,"E5":178.9,"B7":197.9,"SDV":216.9}},{"id":"asda:gcqdtxr60tsb","brand":"asda","name":"Esso","address":"Powick Road, Birmingham","pc":"B23 7PG","lat":52.510235,"lng":-1.858839,"px":{"E10":159.9,"E5":178.9,"B7":197.9,"SDV":216.9}},{"id":"asda:gcqduwd1xrpt","brand":"asda","name":"Asda","address":"6 Old Horns Crescent, Birmingham","pc":"B43 7HA","lat":52.55126,"lng":-1.90994,"px":{"E10":154.9,"B7":186.9}},{"id":"asda:gcqdz7pnnj2t","brand":"asda","name":"Asda","address":"Walmley Ash Road, Sutton Coldfield","pc":"B76 1XL","lat":52.532751,"lng":-1.78046,"px":{"E10":155.7,"B7":186.7}},{"id":"asda:gcqe08fmbzfe","brand":"asda","name":"Esso","address":"40301 Millfields Road, Wolverhampton","pc":"WV14 0QJ","lat":52.563742,"lng":-2.084276,"px":{"E10":160.9,"E5":179.9,"B7":197.9,"SDV":216.9}},{"id":"asda:gcqe4m5x5vmm","brand":"asda","name":"Esso","address":"354 Wolverhampton Road, Walsall","pc":"WS2 8RN","lat":52.58729,"lng":-2.005523,"px":{"E10":156.9,"E5":175.9,"B7":191.9,"SDV":210.9}},{"id":"asda:gcqe694vrcdh","brand":"asda","name":"Esso","address":"570 Bloxwich Road, Walsall","pc":"WS3 2BB","lat":52.608909,"lng":-1.995437,"px":{"E10":156.9,"E5":175.9,"B7":191.9}},{"id":"asda:gcqe9z1wk0rp","brand":"asda","name":"Asda","address":"Avon Road, Cannock","pc":"WS11 1LH","lat":52.68297,"lng":-2.03563,"px":{"E10":151.7,"B7":182.7}},{"id":"asda:gcqee4q8n21f","brand":"asda","name":"Esso","address":"Watling Street, Cannock","pc":"WS11 9NA","lat":52.658844,"lng":-1.968341,"px":{"E10":150.9,"E5":169.9,"B7":186.9,"SDV":205.9}},{"id":"asda:gcqek60j851m","brand":"asda","name":"Esso","address":"Northgate, Birmingham","pc":"WS9 8TH","lat":52.614382,"lng":-1.922074,"px":{"E10":161.9,"E5":180.9,"B7":195.9,"SDV":214.9}},{"id":"asda:gcqf2gm95zy5","brand":"asda","name":"Esso","address":"Coventry Road, Solihull","pc":"B92 0EH","lat":52.444819,"lng":-1.72183,"px":{"E10":160.9,"E5":179.9,"B7":197.9,"SDV":216.9}},{"id":"asda:gcqfh9xp9g5b","brand":"asda","name":"Esso","address":"Fletchamstead Highway, Coventry","pc":"CV4 7BB","lat":52.390362,"lng":-1.54536,"px":{"E10":163.9,"E5":182.9,"B7":195.9,"SDV":214.9}},{"id":"asda:gcqfn1wd5k4j","brand":"asda","name":"Asda","address":"Abbey Park - North London Road, Coventry","pc":"CV3 4AR","lat":52.3914,"lng":-1.4868,"px":{"E10":152.9,"B7":185.7}},{"id":"asda:gcqfr2kmzxn5","brand":"asda","name":"Asda","address":"Brade Drive, Coventry","pc":"CV2 2PN","lat":52.429065,"lng":-1.432156,"px":{"E10":152.7,"B7":185.7}},{"id":"asda:gcqfxq717u18","brand":"asda","name":"Esso","address":"Lutterworth Road, Nuneaton","pc":"CV11 6PG","lat":52.505242,"lng":-1.434949,"px":{"E10":160.9,"E5":179.9,"B7":195.9,"SDV":214.9}},{"id":"asda:gcqfy9ym7v8s","brand":"asda","name":"Asda","address":"Newtown Road, Nuneaton","pc":"CV11 4FL","lat":52.525387,"lng":-1.463363,"px":{"E10":152.9,"B7":185.9}},{"id":"asda:gcqg3k1ns59q","brand":"asda","name":"Asda","address":"Ventura Road, Tamworth","pc":"B78 3HB","lat":52.625595,"lng":-1.701441,"px":{"E10":155.7,"B7":188.7}},{"id":"asda:gcqg5qggnbq1","brand":"asda","name":"Esso","address":"Watling Street, Tamworth","pc":"B78 1SS","lat":52.596234,"lng":-1.609,"px":{"E10":159.9,"E5":178.9,"B7":190.9,"SDV":209.9}},{"id":"asda:gcqg68e8pz8u","brand":"asda","name":"Esso","address":"Green Ln, Dordon, Tamworth","pc":"B77 5PS","lat":52.605202,"lng":-1.641569,"px":{"E10":185.9,"E5":204.9,"B7":199.9,"SDV":218.9}},{"id":"asda:gcqkruzut0ep","brand":"asda","name":"Asda","address":"Queensway, Stafford","pc":"ST16 3TA","lat":52.804175,"lng":-2.106814,"px":{"E10":153.7,"B7":185.7}},{"id":"asda:gcqkrwtrybd2","brand":"asda","name":"Shell","address":"59 Eccleshall Road, Stafford","pc":"ST16 2SL","lat":52.81541,"lng":-2.123941,"px":{"E10":161.9,"E5":180.9,"B7":197.9,"SDV":216.9}},{"id":"asda:gcqky9r6pfm0","brand":"asda","name":"Esso","address":"M6 Southbound, Stone","pc":"ST15 0XE","lat":52.872299,"lng":-2.162743,"px":{"E10":185.9,"E5":204.9,"B7":199.9,"SDV":218.9}},{"id":"asda:gcqmmuyyy5nk","brand":"asda","name":"Esso","address":"Stone Road A34, Stoke-on-trent","pc":"ST4 4QB","lat":52.981369,"lng":-2.198716,"px":{"E10":157.9,"E5":176.9,"B7":197.9,"SDV":216.9}},{"id":"asda:gcqmqvjnvhnt","brand":"asda","name":"BP","address":"Blurton Road, Stoke-on-trent","pc":"ST3 2AQ","lat":52.982748,"lng":-2.157216,"px":{"E10":157.9,"E5":176.9,"B7":186.9,"SDV":205.9}},{"id":"asda:gcqmrpkm70wc","brand":"asda","name":"Shell","address":"King Street, Stoke-on-trent","pc":"ST4 2LT","lat":52.997762,"lng":-2.157717,"px":{"E10":152.9,"E5":171.9,"B7":185.9,"SDV":204.9}},{"id":"asda:gcqmtn3t0jf1","brand":"asda","name":"Esso","address":"Talke Road, Stoke-on-trent","pc":"ST5 7PJ","lat":53.032726,"lng":-2.239373,"px":{"E10":162.9,"E5":181.9,"B7":197.9,"SDV":216.9}},{"id":"asda:gcqmttrhmrd8","brand":"asda","name":"Asda","address":"Wolstanton Retail Park, Newcastle under Lyme","pc":"ST5 0AP","lat":53.027655,"lng":-2.209396,"px":{"E10":150.7,"B7":184.6}},{"id":"asda:gcqmxb8rzt3b","brand":"asda","name":"Esso","address":"Dividy Road, Stoke-on-trent","pc":"ST3 5YY","lat":53.00108,"lng":-2.119897,"px":{"E10":155.9,"E5":174.9,"B7":191.9}},{"id":"asda:gcqmxh3x2pxh","brand":"asda","name":"Esso","address":"4 Ruxley Road, Stoke-on-trent","pc":"ST2 9DG","lat":53.022684,"lng":-2.15139,"px":{"E10":155.9,"E5":174.9,"B7":189.9,"SDV":208.9}},{"id":"asda:gcqmy34u7mnf","brand":"asda","name":"Esso","address":"Moorland Road, Stoke-on-trent","pc":"ST6 1JP","lat":53.048445,"lng":-2.178701,"px":{"E10":160.9,"E5":179.9,"B7":197.9,"SDV":216.9}},{"id":"asda:gcqssrx9df9u","brand":"asda","name":"BP","address":"Uttoxeter Road, Uttoxeter","pc":"ST14 5AA","lat":52.907648,"lng":-1.855301,"px":{"E10":174.9,"E5":193.9,"B7":197.9,"SDV":216.9}},{"id":"asda:gcqsvz912xjf","brand":"asda","name":"Esso","address":"Uttoxeter Road, Uttoxeter","pc":"ST14 5AA","lat":52.907662,"lng":-1.855286,"px":{"E10":162.9,"E5":181.9,"B7":196.9,"SDV":215.9}},{"id":"asda:gcqu6gm8pcbz","brand":"asda","name":"Esso","address":"St Peters Bridge, Burton-on-Trent","pc":"DE15 9AW","lat":52.796183,"lng":-1.629075,"px":{"E10":161.9,"E5":180.9,"B7":189.9,"SDV":208.9}},{"id":"asda:gcque1przppb","brand":"asda","name":"Esso","address":"Derby Road, Burton","pc":"DE13 0DF","lat":52.822464,"lng":-1.623772,"px":{"E10":161.9,"E5":180.9,"B7":197.9,"SDV":216.9}},{"id":"asda:gcqujn3yzq6d","brand":"asda","name":"Asda","address":"Tollgate, Burton Road, Woodville","pc":"DE11 7JE","lat":52.7699,"lng":-1.535368,"px":{"E10":151.7,"B7":185.7}},{"id":"asda:gcqunfb7vc29","brand":"asda","name":"Esso","address":"Ashby Gateway, Ashby de la Zouch","pc":"LE65 1JP","lat":52.751774,"lng":-1.449282,"px":{"E10":158.9,"E5":177.9,"B7":194.9,"SDV":213.9}},{"id":"asda:gcquy1b4sfxy","brand":"asda","name":"Asda","address":"Sinfin Shopping Centre, Derby","pc":"DE24 3DS","lat":52.876267,"lng":-1.493926,"px":{"E10":152.7,"B7":185.9}},{"id":"asda:gcquz47f2bn5","brand":"asda","name":"Esso","address":"Chellaston Road, Derby","pc":"DE24 9EG","lat":52.878957,"lng":-1.445005,"px":{"E10":156.9,"E5":175.9,"B7":196.9,"SDV":215.9}},{"id":"asda:gcqvjg25165p","brand":"asda","name":"Esso","address":"A38 Mackworth Island, Derby","pc":"DE22 4AA","lat":52.928872,"lng":-1.505176,"px":{"E10":163.9,"E5":182.9,"B7":197.9,"SDV":216.9}},{"id":"asda:gcqvn72ktxdg","brand":"asda","name":"Texaco","address":"27 Duffield Road, Derby","pc":"DE1 3BH","lat":52.928822,"lng":-1.482576,"px":{"E10":157.9,"E5":175.9,"B7":189.9}},{"id":"asda:gcqvp025pp5h","brand":"asda","name":"BP","address":"Murdoch Road, Derby","pc":"DE24 8AN","lat":52.912687,"lng":-1.448887,"px":{"E10":157.9,"E5":176.9,"B7":187.9,"SDV":206.9}},{"id":"asda:gcqvp9nnxzm6","brand":"asda","name":"Asda","address":"Derby Road, Spondon","pc":"DE21 7LW","lat":52.916821,"lng":-1.419854,"px":{"E10":154.7,"B7":185.7}},{"id":"asda:gcqyz80hrwft","brand":"asda","name":"Esso","address":"Derby Road, Chesterfield","pc":"S40 2EU","lat":53.21854,"lng":-1.427897,"px":{"E10":157.9,"B7":194.9,"SDV":213.9}},{"id":"asda:gcqzwk21rs32","brand":"asda","name":"Esso","address":"158 Ecclesall Road, Sheffield","pc":"S11 8JD","lat":53.373192,"lng":-1.48283,"px":{"E10":157.9,"E5":176.9,"B7":196.9,"SDV":215.9}},{"id":"asda:gcqzwqdy3rgt","brand":"asda","name":"Esso","address":"Craven Street, Sheffield","pc":"S3 7EZ","lat":53.386587,"lng":-1.479196,"px":{"E10":163.9,"E5":182.9,"B7":197.9,"SDV":216.9}},{"id":"asda:gcqzx9bk5bxz","brand":"asda","name":"Asda","address":"Manor Top Shopping Centre, 978 City Road, Sheffield","pc":"S12 2AB","lat":53.359913,"lng":-1.427708,"px":{"E10":153.9,"B7":186.9}},{"id":"asda:gcqzxu99c8q3","brand":"asda","name":"Esso","address":"340 Prince of Wales Road, Sheffield","pc":"S9 4EL","lat":53.37447,"lng":-1.415286,"px":{"E10":164.9,"E5":183.9,"B7":197.9,"SDV":216.9}},{"id":"asda:gcr1gq0jp4vk","brand":"asda","name":"Asda","address":"12 Chapel Street, Rugby","pc":"CV21 3EB","lat":52.3727,"lng":-1.26312,"px":{"E10":155.7,"B7":186.7}},{"id":"asda:gcr37k3bs5sn","brand":"asda","name":"Esso","address":"New link road, Northampton","pc":"NN7 3NF","lat":52.230119,"lng":-1.018968,"px":{"E10":159.9,"E5":178.9,"B7":196.9,"SDV":215.9}},{"id":"asda:gcr3m8rsmk3h","brand":"asda","name":"Esso","address":"A45 East Bound Nene Valley Way, Northampton","pc":"NN3 5LU","lat":52.255457,"lng":-0.791979,"px":{"E10":156.9,"E5":175.9,"B7":193.9}},{"id":"asda:gcr3m8rsmk3h","brand":"asda","name":"Esso","address":"A45 Westbound, Nene Valley Way, Northampton","pc":"NN3 5LU","lat":52.254547,"lng":-0.794104,"px":{"E10":156.9,"E5":175.9,"B7":193.9,"SDV":212.9}},{"id":"asda:gcr3x2env7et","brand":"asda","name":"Esso","address":"1-3 Rossetti Close, Wellingborough","pc":"NN8 3FQ","lat":52.299148,"lng":-0.731932,"px":{"E10":159.9,"E5":178.9,"B7":194.9,"SDV":213.9}},{"id":"asda:gcr4bywxqc3w","brand":"asda","name":"Asda","address":"Barwell Lane, Hinckley","pc":"LE10 1SS","lat":52.551667,"lng":-1.3628,"px":{"E10":154.7,"B7":187.7}},{"id":"asda:gcr5bcsskn11","brand":"asda","name":"Asda Express","address":"99 Midland Road, Coalville","pc":"LE67 1EH","lat":52.699411,"lng":-1.366851,"px":{"E10":158.9,"E5":174.9,"B7":193.9,"SDV":209.9}},{"id":"asda:gcr5f3cm573y","brand":"asda","name":"Esso","address":"32 Shaw Lane, Leicester","pc":"LE67 9PU","lat":52.700889,"lng":-1.305641,"px":{"E10":163.9,"E5":999.9,"B7":197.9,"SDV":216.9}},{"id":"asda:gcr5j6ntnjjx","brand":"asda","name":"Texaco","address":"77 Lutterworth Road, Blaby","pc":"LE8 4DX","lat":52.570559,"lng":-1.166133,"px":{"E10":159.9,"B7":193.9}},{"id":"asda:gcr5jpqpnvus","brand":"asda","name":"Asda","address":"Narborough Road South, Braunstone","pc":"LE3 2LL","lat":52.599777,"lng":-1.177952,"px":{"E10":153.7,"B7":183.7}},{"id":"asda:gcr5mbfbbq12","brand":"asda","name":"Esso","address":"Aylestone Road, Leicester","pc":"LE2 8JB","lat":52.606819,"lng":-1.149775,"px":{"E10":160.9,"E5":179.9,"B7":197.9,"SDV":216.9}},{"id":"asda:gcr5mmef9w0h","brand":"asda","name":"Esso","address":"Hinckley Road, Leicester","pc":"LE3 0WD","lat":52.632974,"lng":-1.166521,"px":{"E10":159.9,"E5":178.9,"B7":195.9,"SDV":214.9}},{"id":"asda:gcr5t881512x","brand":"asda","name":"Esso","address":"335 Groby Road, Leicester","pc":"LE3 9QJ","lat":52.649433,"lng":-1.164627,"px":{"E10":159.9,"E5":178.9,"B7":197.9,"SDV":216.9}},{"id":"asda:gcr5w15dhjgc","brand":"asda","name":"Asda","address":"1 Exploration Drive, Leicester","pc":"LE4 5NU","lat":52.65246,"lng":-1.135026,"px":{"E10":157.7,"B7":189.9}},{"id":"asda:gcr5xqch65jq","brand":"asda","name":"Asda","address":"Barkby Thorpe Lane, Leicester","pc":"LE4 8GN","lat":52.68431,"lng":-1.08618,"px":{"E10":157.9,"B7":188.7}},{"id":"asda:gcr6jvz3endr","brand":"asda","name":"Esso","address":"Kettering Road, Rothwell","pc":"NN14 1SS","lat":52.41456,"lng":-0.790315,"px":{"E10":166.9,"E5":185.9,"B7":197.9,"SDV":216.9}},{"id":"asda:gcr6pkcmq83h","brand":"asda","name":"Asda","address":"Cunliffe Drive, Northfield Avenue, Kettering","pc":"NN16 9HU","lat":52.409475,"lng":-0.734174,"px":{"E10":150.7,"B7":184.7}},{"id":"asda:gcr6pmhw4t2f","brand":"asda","name":"Esso","address":"Rockingham Road, Kettering","pc":"NN14 1UD","lat":52.424166,"lng":-0.728001,"px":{"E10":170.9,"E5":189.9,"B7":197.9,"SDV":216.9}},{"id":"asda:gcr9c0t37pct","brand":"asda","name":"Asda Express","address":"Burton Road, Wellingborough","pc":"NN9 5HX","lat":52.34187,"lng":-0.651838,"px":{"E10":161.9,"E5":177.9,"B7":192.9,"SDV":208.9}},{"id":"asda:gcr9d21gq2hc","brand":"asda","name":"Asda","address":"Washbrook Road, Rushden","pc":"NN10 6AA","lat":52.29548,"lng":-0.60157,"px":{"E10":155.9,"B7":189.9}},{"id":"asda:gcr9gd290yrv","brand":"asda","name":"Asda","address":"Michael Way, Raunds","pc":"NN9 6GR","lat":52.351433,"lng":-0.548587,"px":{"E10":157.9,"B7":190.9}},{"id":"asda:gcrd8gbv2ce6","brand":"asda","name":"BP","address":"Weldon Road, Corby","pc":"NN17 3HT","lat":52.492212,"lng":-0.669099,"px":{"E10":159.9,"E5":178.9,"B7":196.9,"SDV":215.9}},{"id":"asda:gcrd8s862dv8","brand":"asda","name":"Asda","address":"Phoenix Park Way, Corby","pc":"NN17 5DT","lat":52.493857,"lng":-0.678637,"px":{"E10":152.7,"B7":185.7}},{"id":"asda:gcrg7f2pgmvh","brand":"asda","name":"Esso","address":"A47 East Bound, Eye","pc":"PE6 7SZ","lat":52.612218,"lng":-0.187323,"px":{"E10":160.9,"E5":179.9,"B7":197.9,"SDV":216.9}},{"id":"asda:gcrh7chm41q3","brand":"asda","name":"Esso","address":"Derby Road, Loughborough","pc":"LE12 5LD","lat":52.79823,"lng":-1.261166,"px":{"E10":153.9,"E5":172.9,"B7":191.9,"SDV":210.9}},{"id":"asda:gcrhgn6yp1yj","brand":"asda","name":"Asda","address":"Midland Street, Long Eaton","pc":"NG10 1NY","lat":52.899966,"lng":-1.268493,"px":{"E10":150.7,"B7":184.7}},{"id":"asda:gcrhyj80ymup","brand":"asda","name":"Esso","address":"Loughborough Road, Ruddington","pc":"NG11 6LJ","lat":52.896545,"lng":-1.142261,"px":{"E10":160.9,"E5":179.9,"B7":195.9,"SDV":214.9}},{"id":"asda:gcrj3bfkdkef","brand":"asda","name":"Asda Express","address":"Ladywood Road, Ilkeston","pc":"DE7 4NF","lat":52.959018,"lng":-1.326153,"px":{"E10":157.9,"E5":173.9,"B7":192.9,"SDV":208.9}},{"id":"asda:gcrj69233btk","brand":"asda","name":"Asda","address":"Nottingham Road, Ilkeston","pc":"DE7 5BN","lat":52.961186,"lng":-1.295961,"px":{"E10":150.7,"B7":184.7}},{"id":"asda:gcrj6n0jryk6","brand":"asda","name":"Asda Express","address":"242 Heanor Road, Ilkeston","pc":"DE7 8TG","lat":52.987995,"lng":-1.31802,"px":{"E10":157.9,"E5":173.9,"B7":192.9,"SDV":208.9}},{"id":"asda:gcrj9sp3jnvp","brand":"asda","name":"Asda","address":"Wesley Street, Langley Mill","pc":"NG16 4ED","lat":53.020256,"lng":-1.33002,"px":{"E10":151.7,"B7":184.7}},{"id":"asda:gcrj9u50wzyk","brand":"asda","name":"Esso","address":"Langley Mill, Nottingham","pc":"NG16 4AA","lat":53.020164,"lng":-1.324975,"px":{"E10":161.9,"E5":180.9,"B7":197.9,"SDV":216.9}},{"id":"asda:gcrjk78k3qsv","brand":"asda","name":"Asda","address":"40 Strelley Road, Nottingham","pc":"NG8 3AP","lat":52.974378,"lng":-1.219065,"px":{"E10":150.7,"B7":184.7}},{"id":"asda:gcrjm6k72705","brand":"asda","name":"Asda","address":"Radford Rd - Hyson Green, Nottingham","pc":"NG7 5FP","lat":52.967035,"lng":-1.169689,"px":{"E10":153.9,"B7":185.9}},{"id":"asda:gcrjn4dz7y94","brand":"asda","name":"Asda","address":"Loughborough Road, Nottingham","pc":"NG2 7JA","lat":52.925169,"lng":-1.138639,"px":{"E10":155.7,"B7":186.7}},{"id":"asda:gcrjq2ep2vz2","brand":"asda","name":"Esso","address":"Carlton Road, Nottingham","pc":"NG3 2NJ","lat":52.960844,"lng":-1.122515,"px":{"E10":158.9,"E5":177.9,"B7":195.9,"SDV":214.9}},{"id":"asda:gcrjqmm9y6x8","brand":"asda","name":"Asda Express","address":"705 Woodborough Road, Nottingham","pc":"NG3 5QG","lat":52.983215,"lng":-1.123784,"px":{"E10":157.9,"E5":173.9,"B7":189.9}},{"id":"asda:gcrjw35ngpww","brand":"asda","name":"Asda","address":"111-127 Front Street, Arnold, Nottingham","pc":"NG5 7ED","lat":53.005687,"lng":-1.128233,"px":{"E10":151.7,"B7":186.7}},{"id":"asda:gcrmvtbj7b5h","brand":"asda","name":"Asda","address":"Lombard Street, Newark","pc":"NG24 1XG","lat":53.07426,"lng":-0.813771,"px":{"E10":153.7,"B7":187.9}},{"id":"asda:gcrn076n5e8h","brand":"asda","name":"Esso","address":"Chesterfield Rd, Alfreton","pc":"DE55 6AW","lat":53.114062,"lng":-1.396272,"px":{"E10":159.9,"E5":178.9,"B7":197.9,"SDV":216.9}},{"id":"asda:gcrn5r3qzydz","brand":"asda","name":"Asda","address":"Priestsic Road, Sutton-In-Ashfield","pc":"NG17 2AH","lat":53.126924,"lng":-1.261431,"px":{"E10":152.7,"B7":184.7}},{"id":"asda:gcrn9s8rf52y","brand":"asda","name":"Esso","address":"Mansfield Road, Heath","pc":"S44 5SF","lat":53.200963,"lng":-1.340835,"px":{"E10":159.9,"E5":178.9,"B7":197.9,"SDV":216.9}},{"id":"asda:gcrncstj60ep","brand":"asda","name":"Esso","address":"M1 29A, Markham Ln, Long Duckmanton","pc":"S44 5HB","lat":53.243394,"lng":-1.333482,"px":{"E10":183.9,"E5":202.9,"B7":199.9,"SDV":218.9}},{"id":"asda:gcrnmkv4tvtj","brand":"asda","name":"Asda","address":"Old Mill Lane, Mansfield","pc":"NG19 0HA","lat":53.156435,"lng":-1.168417,"px":{"E10":152.7,"B7":184.7}},{"id":"asda:gcrp3p10u9ze","brand":"asda","name":"Asda","address":"Beighton Road East, Sheffield","pc":"S20 7AB","lat":53.344255,"lng":-1.360728,"px":{"E10":152.7,"B7":185.7}},{"id":"asda:gcrp8hz09bfp","brand":"asda","name":"Asda","address":"Handsworth Road, Sheffield","pc":"S13 9LR","lat":53.375793,"lng":-1.396559,"px":{"E10":152.9,"B7":185.9}},{"id":"asda:gcrp8kh7pmrn","brand":"asda","name":"Esso","address":"320 Handsworth Road, Sheffield","pc":"S13 9BX","lat":53.372126,"lng":-1.389106,"px":{"E10":156.9,"E5":175.9,"B7":197.9,"SDV":216.9}},{"id":"asda:gcrpbfevbn85","brand":"asda","name":"Esso","address":"Bawtry Road, Rotherham","pc":"S60 5DL","lat":53.408092,"lng":-1.367121,"px":{"E10":154.9,"E5":173.9,"B7":193.9,"SDV":212.9}},{"id":"asda:gcrpd69644rh","brand":"asda","name":"Asda Express","address":"Worksop Road, Sheffield","pc":"S26 2EA","lat":53.363698,"lng":-1.305561,"px":{"E10":157.9,"E5":173.9,"B7":191.9}},{"id":"asda:gcrpq13s7uyc","brand":"asda","name":"Asda","address":"Sandy Lane, Worksop","pc":"S80 3ET","lat":53.313285,"lng":-1.140348,"px":{"E10":155.7,"B7":186.7}},{"id":"asda:gcrps0jbmmtb","brand":"asda","name":"Esso","address":"Worksop Road, Sheffield","pc":"S25 5ER","lat":53.349683,"lng":-1.222341,"px":{"E10":155.9,"E5":174.9,"B7":195.9,"SDV":214.9}},{"id":"asda:gcrpxygktuc9","brand":"asda","name":"Esso","address":"Moto Service Area, Hilltop Roundabout, Worksop","pc":"S81 8HG","lat":53.388305,"lng":-1.06139,"px":{"E10":175.9,"E5":194.9,"B7":199.9,"SDV":218.9}},{"id":"asda:gcrpzu4w21b6","brand":"asda","name":"Asda","address":"Scrooby Road, Harworth","pc":"DN11 8AB","lat":53.41661,"lng":-1.06224,"px":{"E10":157.9,"B7":192.9}},{"id":"asda:gcrr66xepg07","brand":"asda","name":"Asda","address":"Wharf Road, East Retford","pc":"DN22 6EN","lat":53.320954,"lng":-0.941507,"px":{"E10":155.7,"B7":186.7}},{"id":"asda:gcrr6dhm731z","brand":"asda","name":"Esso","address":"40 London Road, Retford","pc":"DN22 6AZ","lat":53.317705,"lng":-0.938749,"px":{"E10":157.9,"E5":176.9,"B7":190.9,"SDV":209.9}},{"id":"asda:gcrr6hp090n8","brand":"asda","name":"Asda Express","address":"Unit 1-4, North Road, Retford","pc":"DN22 7XQ","lat":53.32827,"lng":-0.958939,"px":{"E10":157.9,"E5":173.9,"B7":189.9,"SDV":205.9}},{"id":"asda:gcrs6h7jsd83","brand":"asda","name":"Esso","address":"A1 South Bound, Grantham","pc":"NG33 5JN","lat":52.802624,"lng":-0.61092,"px":{"E10":165.9,"E5":184.9,"B7":194.9,"SDV":213.9}},{"id":"asda:gcrt128vuzvx","brand":"asda","name":"Asda","address":"Union Street, Grantham","pc":"NG31 6NZ","lat":52.913372,"lng":-0.64508,"px":{"E10":151.7,"B7":184.7}},{"id":"asda:gcrvrk8thdef","brand":"asda","name":"Asda","address":"Lister Way, Boston","pc":"PE21 8EQ","lat":52.979693,"lng":-0.032074,"px":{"E10":154.9,"B7":188.9}},{"id":"asda:gcrwdd9z58h3","brand":"asda","name":"Asda","address":"Newark Road, North Hykeham, Lincoln","pc":"LN6 8JY","lat":53.187871,"lng":-0.591536,"px":{"E10":157.9,"B7":188.9}},{"id":"asda:gcrwem559ch4","brand":"asda","name":"Esso","address":"246 Newark Road, Lincoln","pc":"LN6 8RP","lat":53.201902,"lng":-0.555941,"px":{"E10":161.9,"E5":180.9,"B7":195.9}},{"id":"asda:gcrzxfx3jqfe","brand":"asda","name":"Esso","address":"65 Newmarket, Louth","pc":"LN11 9EG","lat":53.36355,"lng":-0.000801,"px":{"E10":159.9,"E5":178.9,"B7":195.9,"SDV":214.9}},{"id":"asda:gcwbs7k15q6w","brand":"asda","name":"Asda Express","address":"The Cross, Barnsley","pc":"S75 4LX","lat":53.543449,"lng":-1.565408,"px":{"E10":156.9,"E5":172.9,"B7":189.9,"SDV":205.9}},{"id":"asda:gcwbwqmvqkzc","brand":"asda","name":"Asda","address":"Old Mill Lane, Barnsley","pc":"S71 1LN","lat":53.560015,"lng":-1.473065,"px":{"E10":154.9,"B7":185.9}},{"id":"asda:gcx01cp1xhpt","brand":"asda","name":"Asda","address":"Alwdarke Lane, Off Doncaster Road, Rotherham","pc":"S65 3SW","lat":53.443273,"lng":-1.319422,"px":{"E10":153.7,"B7":185.7}},{"id":"asda:gcx01t0wyuk7","brand":"asda","name":"Esso","address":"Dale Road, Sheffield","pc":"S62 7BY","lat":53.466531,"lng":-1.339596,"px":{"E10":159.9,"E5":178.9,"B7":191.9,"SDV":999.9}},{"id":"asda:gcx0pwbwc5zz","brand":"asda","name":"Asda","address":"Grange Lane, New Rossington, Rossington","pc":"DN11 0LP","lat":53.475832,"lng":-1.075989,"px":{"E10":152.7,"B7":186.7}},{"id":"asda:gcx0qym0prxc","brand":"asda","name":"Asda","address":"Gliwice Way, Bawtry Road, Doncaster","pc":"DN4 5NW","lat":53.516188,"lng":-1.102366,"px":{"E10":152.7,"B7":186.7}},{"id":"asda:gcx0t6mvsszm","brand":"asda","name":"Esso","address":"York Road, Doncaster","pc":"DN5 8SD","lat":53.538417,"lng":-1.166488,"px":{"E10":158.9,"E5":177.9,"B7":195.9,"SDV":214.9}},{"id":"asda:gcx88rm2wuqc","brand":"asda","name":"Asda","address":"Burringham Road, Scunthorpe","pc":"DN17 2XF","lat":53.565325,"lng":-0.68463,"px":{"E10":152.9,"B7":186.9}},{"id":"asda:gcx8b7tp4u1n","brand":"asda","name":"Esso","address":"Doncaster Road, Scunthorpe","pc":"DN15 7DR","lat":53.589786,"lng":-0.685152,"px":{"E10":154.9,"E5":999.9,"B7":190.9,"SDV":209.9}},{"id":"asda:gcx9msxdqdh6","brand":"asda","name":"Esso","address":"A1077 Ferriby Road, Barton-Upon-Humber","pc":"DN18 5LQ","lat":53.680519,"lng":-0.454789,"px":{"E10":153.9,"E5":172.9,"B7":188.9,"SDV":207.9}},{"id":"asda:gcxbqqfx4t0x","brand":"asda","name":"Esso","address":"Louth Road, Grimsby","pc":"DN36 4PT","lat":53.519753,"lng":-0.073362,"px":{"E10":158.9,"E5":177.9,"B7":194.9}},{"id":"asda:gcxbwpxs1hg5","brand":"asda","name":"Asda","address":"Holles Street, Grimsby","pc":"DN32 9DL","lat":53.567302,"lng":-0.077544,"px":{"E10":150.7,"B7":183.7}},{"id":"asda:u12e99g0pjz4","brand":"asda","name":"Asda Express","address":"2 Rudge Way, Swaffham","pc":"PE37 8DQ","lat":52.656128,"lng":0.773472,"px":{"E10":161.9,"E5":177.9,"B7":197.9,"SDV":213.9}},{"id":"asda:u12k4pnn5sp1","brand":"asda","name":"Asda","address":"Langley Road, South Wootton, Kings Lynn","pc":"PE30 3UG","lat":52.773744,"lng":0.448099,"px":{"E10":153.7,"B7":184.9}},{"id":"asda:u12nrexzuzyj","brand":"asda","name":"Asda","address":"Roman Bank, Skegness","pc":"PE25 1RZ","lat":53.151241,"lng":0.340842,"px":{"E10":152.7,"B7":185.7}},{"id":"bp:gcq2pk9wt2yt","brand":"bp","name":"BP","address":"M5 Eastbound J7/8","pc":"WR8 9LJ","lat":52.05709,"lng":-2.14004,"px":{"E5":203.9,"E10":184.9,"B7":205.9,"SDV":226.9}},{"id":"bp:gcq2v4h2wntn","brand":"bp","name":"BP","address":"Malvern Road","pc":"WR2 4NR","lat":52.174194,"lng":-2.23511,"px":{"E5":180.9,"E10":158.9,"B7":192.9,"SDV":213.9}},{"id":"bp:gcq3qbe3dpmd","brand":"bp","name":"BP","address":"Worcester Road","pc":"WR9 8AX","lat":52.25402,"lng":-2.15975,"px":{"E5":178.9,"E10":157.9,"B7":189.9,"SDV":210.9}},{"id":"bp:gcq6r799p1s4","brand":"bp","name":"BP","address":"Hagley Road","pc":"DY8 2JL","lat":52.446164,"lng":-2.139968,"px":{"E5":178.9,"E10":157.9,"B7":189.9,"SDV":210.9}},{"id":"bp:gcq7eb6d7ktv","brand":"bp","name":"BP","address":"Newport Road","pc":"WV7 3NA","lat":52.648269,"lng":-2.292562,"px":{"E5":180.9,"E10":159.9,"B7":193.9,"SDV":214.9}},{"id":"bp:gcq9ev6d05q9","brand":"bp","name":"BP","address":"Birmingham Road","pc":"B97 6RH","lat":52.324122,"lng":-1.941138,"px":{"E5":176.9,"E10":155.9,"B7":189.9,"SDV":210.9}},{"id":"bp:gcqc7m12stzv","brand":"bp","name":"BP","address":"A46 Warwick By-Pass","pc":"CV35 8RH","lat":52.27856,"lng":-1.61307,"px":{"E5":180.9,"E10":159.9,"B7":189.9,"SDV":210.9}},{"id":"bp:gcqc7m479wu7","brand":"bp","name":"BP","address":"South Bound Service Area","pc":"CV35 8RH","lat":52.27908,"lng":-1.61183,"px":{"E5":180.9,"E10":159.9,"B7":189.9,"SDV":210.9}},{"id":"bp:gcqckpeg0mxc","brand":"bp","name":"BP","address":"Coventry Road","pc":"CV34 5YH","lat":52.29272,"lng":-1.57686,"px":{"E5":180.9,"E10":159.9,"B7":193.9,"SDV":214.9}},{"id":"bp:gcqcvx27pzvk","brand":"bp","name":"BP","address":"Stonebridge Highway","pc":"CV3 6RQ","lat":52.37925,"lng":-1.51543,"px":{"E5":180.9,"E10":159.9,"B7":189.9,"SDV":210.9}},{"id":"bp:gcqdnec7hh3d","brand":"bp","name":"BP","address":"457 Stratford Road","pc":"B90 4AA","lat":52.40395,"lng":-1.82184,"px":{"E5":173.9,"E10":152.9,"B7":184.9,"SDV":205.9}},{"id":"bp:gcqdy7yx9dtz","brand":"bp","name":"BP","address":"11 Penns Lane","pc":"B72 1AY","lat":52.53655,"lng":-1.825718,"px":{"E5":183.9,"E10":159.9,"B7":191.9,"SDV":212.9}},{"id":"bp:gcqee5nkmwz6","brand":"bp","name":"BP","address":"Bettys Lane","pc":"WS11 9UX","lat":52.66373,"lng":-1.96871,"px":{"E5":206.9,"E10":185.9,"B7":205.9,"SDV":219.9}},{"id":"bp:gcqehshj20my","brand":"bp","name":"BP","address":"Beacon Hill","pc":"WS9 0RH","lat":52.58147,"lng":-1.90612,"px":{"E5":180.9,"E10":159.9,"B7":189.9,"SDV":210.9}},{"id":"bp:gcqk4m38mpm0","brand":"bp","name":"BP","address":"A41 Audly Avenue","pc":"TF10 7BX","lat":52.763296,"lng":-2.359779,"px":{"E5":180.9,"E10":159.9,"B7":189.9,"SDV":210.9}},{"id":"bp:gcqkye792s59","brand":"bp","name":"BP","address":"M6 Motorway","pc":"ST15 0EU","lat":52.8843,"lng":-2.17046,"px":{"E5":206.9,"E10":185.9,"B7":205.9,"SDV":219.9}},{"id":"bp:gcquuzhgqger","brand":"bp","name":"BP","address":"Uttoxeter Road","pc":"DE3 9GE","lat":52.905241,"lng":-1.542255,"px":{"E5":179.9,"E10":158.9,"B7":191.9,"SDV":212.9}},{"id":"bp:gcr0n1gzyenf","brand":"bp","name":"BP","address":"Northampton Road","pc":"NN13 5SZ","lat":52.04221,"lng":-1.13714,"px":{"E5":183.9,"E10":162.9,"B7":194.9,"SDV":215.9}},{"id":"bp:gcr1w6nrfbrb","brand":"bp","name":"BP","address":"M1 Northbound J16/17","pc":"NN6 7UZ","lat":52.30724,"lng":-1.12288,"px":{"E5":205.9,"E10":184.9,"B7":205.9,"SDV":226.9}},{"id":"bp:gcr1w6pmykt7","brand":"bp","name":"BP","address":"M1 Southbound J 16/17","pc":"NN6 7UZ","lat":52.30692,"lng":-1.12136,"px":{"E5":205.9,"E10":184.9,"B7":205.9,"SDV":219.9}},{"id":"bp:gcr291sfjkfu","brand":"bp","name":"BP","address":"A43 North Bound","pc":"NN12 6TQ","lat":52.12775,"lng":-1.00399,"px":{"E5":180.9,"E10":159.9,"B7":189.9,"SDV":210.9}},{"id":"bp:gcr3482hwhm1","brand":"bp","name":"BP","address":"M1 Northbound","pc":"NN4 9QS","lat":52.2092,"lng":-0.94456,"px":{"E5":205.9,"E10":184.9,"B7":205.9,"SDV":226.9}},{"id":"bp:gcr3483xxg37","brand":"bp","name":"BP","address":"M1 Southbound","pc":"NN4 9QS","lat":52.20971,"lng":-0.94243,"px":{"E5":205.9,"E10":184.9,"B7":205.9,"SDV":219.9}},{"id":"bp:gcr34tj056qj","brand":"bp","name":"BP","address":"Upton Way","pc":"NN5 4EG","lat":52.23451,"lng":-0.93781,"px":{"E5":180.9,"E10":159.9,"B7":191.9,"SDV":212.9}},{"id":"bp:gcr377xuyuky","brand":"bp","name":"BP","address":"Harborough Road","pc":"NN2 8DW","lat":52.271042,"lng":-0.900926,"px":{"E5":177.9,"E10":156.9,"B7":189.9,"SDV":210.9}},{"id":"bp:gcr3hpsjdqsy","brand":"bp","name":"BP","address":"159-185 Abington Avenue","pc":"NN1 4QB","lat":52.24921,"lng":-0.87331,"px":{"E5":181.9,"E10":159.9,"B7":189.9,"SDV":210.9}},{"id":"bp:gcr3zrqb5qgw","brand":"bp","name":"BP","address":"A14 Eastbound","pc":"NN14 1RW","lat":52.37873,"lng":-0.72667,"px":{"E5":187.9,"E10":166.9,"B7":197.9,"SDV":218.9}},{"id":"bp:gcr3zrs2ktg3","brand":"bp","name":"BP","address":"A14 Westbound","pc":"NN14 1RW","lat":52.38014,"lng":-0.73005,"px":{"E5":187.9,"E10":166.9,"B7":197.9,"SDV":218.9}},{"id":"bp:gcr5zfsmh2cq","brand":"bp","name":"BP","address":"1487 Melton Road","pc":"LE7 3FP","lat":52.705026,"lng":-1.059653,"px":{"E5":181.9,"E10":159.9,"B7":189.9,"SDV":210.9}},{"id":"bp:gcr6dx3em7mn","brand":"bp","name":"BP","address":"Melton Road","pc":"LE16 7TH","lat":52.511105,"lng":-0.942532,"px":{"E5":175.9,"E10":154.9,"B7":183.9,"SDV":204.9}},{"id":"bp:gcr6mhphfcd0","brand":"bp","name":"BP","address":"Bear Way","pc":"NN14 2WB","lat":52.449554,"lng":-0.825227,"px":{"E5":184.9,"E10":163.9,"B7":194.9,"SDV":215.9}},{"id":"bp:gcr6xkhm1wdq","brand":"bp","name":"BP","address":"Cottingham Road","pc":"NN18 0TW","lat":52.49357,"lng":-0.73018,"px":{"E5":174.9,"E10":153.9,"B7":184.9,"SDV":205.9}},{"id":"bp:gcr7xnx8n5w1","brand":"bp","name":"BP","address":"Hackmore Way","pc":"LE15 7FS","lat":52.682209,"lng":-0.736505,"px":{"E5":178.9,"E10":157.9,"B7":191.9,"SDV":212.9}},{"id":"bp:gcr9gddjnjcs","brand":"bp","name":"BP","address":"Prospect Way","pc":"NN9 6XU","lat":52.35349,"lng":-0.54631,"px":{"E5":182.9,"E10":161.9,"B7":194.9,"SDV":215.9}},{"id":"bp:gcrcdq9k8pqx","brand":"bp","name":"BP","address":"A1 - A14 Roundabout","pc":"PE28 4NQ","lat":52.33144,"lng":-0.25096,"px":{"E5":188.9,"E10":166.9,"B7":196.9,"SDV":217.9}},{"id":"bp:gcrg1t2qd7gr","brand":"bp","name":"BP","address":"Bretton Way","pc":"PE3 8DE","lat":52.58857,"lng":-0.2852,"px":{"E5":179.9,"E10":158.9,"B7":189.9,"SDV":210.9}},{"id":"bp:gcrjhp09cztj","brand":"bp","name":"BP","address":"Wollaton Vale","pc":"NG8 2GR","lat":52.94895,"lng":-1.2297,"px":{"E5":178.9,"E10":157.9,"B7":189.9,"SDV":210.9}},{"id":"bp:gcrk5tnjpdj2","brand":"bp","name":"BP","address":"Leicester Road","pc":"LE13 0DA","lat":52.76271,"lng":-0.89231,"px":{"E5":178.9,"E10":157.9,"B7":186.9,"SDV":207.9}},{"id":"bp:gcrmfwd340n7","brand":"bp","name":"BP","address":"Upton Road","pc":"NG25 0QB","lat":53.07787,"lng":-0.94164,"px":{"E10":157.9,"B7":191.9,"SDV":212.9}},{"id":"esso_tesco:gcq04s6eq0gw","brand":"esso_tesco","name":"ESSO","address":"Ledbury Road, HEREFORD","pc":"HR1 2TB","lat":52.055159,"lng":-2.698941,"px":{"E5":172.9,"E10":157.9,"SDV":203.9,"B7":188.9}},{"id":"esso_tesco:gcq2vgghyg87","brand":"esso_tesco","name":"ESSO","address":"London Road, WORCESTER","pc":"WR5 2EL","lat":52.18452,"lng":-2.203842,"px":{"SDV":202.9,"B7":188.9,"E10":155.9,"E5":170.9}},{"id":"esso_tesco:gcq6c5etqqs4","brand":"esso_tesco","name":"ESSO","address":"CANN HALL ROAD, BRIDGNORTH","pc":"WV15 5AP","lat":52.534811,"lng":-2.411912,"px":{"B7":190.9,"SDV":205.9,"E10":161.9,"E5":176.9}},{"id":"esso_tesco:gcq6h2mc99fr","brand":"esso_tesco","name":"ESSO","address":"BEWDLEY HILL, KIDDERMINSTER","pc":"DY11 6BS","lat":52.384454,"lng":-2.266206,"px":{"E5":174.9,"E10":159.9,"B7":191.9,"SDV":206.9}},{"id":"esso_tesco:gcq6r7ce2rgf","brand":"esso_tesco","name":"ESSO","address":"Hagley Road, STOURBRIDGE","pc":"DY8 1RD","lat":52.447957,"lng":-2.140258,"px":{"SDV":203.9,"B7":189.9,"E10":156.9,"E5":171.9}},{"id":"esso_tesco:gcq6wtesp6z8","brand":"esso_tesco","name":"ESSO","address":"Moss Grove, KINGSWINFORD","pc":"DY6 9HP","lat":52.501617,"lng":-2.170165,"px":{"E5":170.9,"E10":155.9,"B7":189.9}},{"id":"esso_tesco:gcq8797sjuef","brand":"esso_tesco","name":"ESSO","address":"47 CHELTENHAM ROAD, EVESHAM","pc":"WR11 6LD","lat":52.082773,"lng":-1.950508,"px":{"E5":174.9,"E10":159.9,"B7":191.9,"SDV":206.9}},{"id":"esso_tesco:gcqdb0rk8y23","brand":"esso_tesco","name":"ESSO","address":"Highland Road, DUDLEY","pc":"DY1 3BS","lat":52.516828,"lng":-2.099386,"px":{"SDV":203.9,"B7":189.9,"E10":156.9,"E5":171.9}},{"id":"esso_tesco:gcqdhp2db32r","brand":"esso_tesco","name":"ESSO","address":"LINDEN ROAD, BIRMINGHAM","pc":"B30 1AP","lat":52.423118,"lng":-1.932896,"px":{"B7":186.9,"SDV":201.9,"E10":155.9,"E5":170.9}},{"id":"esso_tesco:gcqdk5dhxyzf","brand":"esso_tesco","name":"ESSO","address":"479 BRISTOL RD, BIRMINGHAM","pc":"B29 6BA","lat":52.446793,"lng":-1.930504,"px":{"E5":170.9,"E10":155.9,"B7":186.9}},{"id":"esso_tesco:gcqdqfbug1zz","brand":"esso_tesco","name":"ESSO","address":"WARWICK ROAD, OLTON, SOLIHULL","pc":"B92 7HS","lat":52.44269,"lng":-1.811575,"px":{"E5":171.9,"E10":156.9,"B7":188.9,"SDV":202.9}},{"id":"esso_tesco:gcqdy7ktef5v","brand":"esso_tesco","name":"ESSO","address":"Sutton Road, BIRMINGHAM","pc":"B23 5TW","lat":52.533457,"lng":-1.828371,"px":{"B7":189.9,"E10":157.9,"E5":172.9}},{"id":"esso_tesco:gcqe21wxt6xx","brand":"esso_tesco","name":"ESSO","address":"Cannock Road, WOLVERHAMPTON","pc":"WV10 8PN","lat":52.612081,"lng":-2.100213,"px":{"E5":172.9,"E10":157.9,"B7":189.9}},{"id":"esso_tesco:gcqe30cvv8uj","brand":"esso_tesco","name":"ESSO","address":"Lichfield Road, WOLVERHAMPTON","pc":"WV11 3HD","lat":52.607651,"lng":-2.062785,"px":{"E5":173.9,"E10":158.9,"B7":190.9}},{"id":"esso_tesco:gcqe33rdhsuh","brand":"esso_tesco","name":"ESSO","address":"68 LICHFIELD RD, WILLENHALL, BIRMINGHAM","pc":"WV12 5UL","lat":52.609775,"lng":-2.043945,"px":{"SDV":204.9,"B7":190.9,"E10":158.9,"E5":173.9}},{"id":"esso_tesco:gcqed5exrugg","brand":"esso_tesco","name":"ESSO","address":"Walsall Road, GREAT WYRLEY","pc":"WS6 6LA","lat":52.666981,"lng":-2.01634,"px":{"SDV":199.9,"B7":185.9,"E10":153.9,"E5":168.9}},{"id":"esso_tesco:gcqenfr9c2h3","brand":"esso_tesco","name":"ESSO","address":"WHITEHOUSE COMMON ROAD, SUTTON COLDFIELD","pc":"B75 6HD","lat":52.571254,"lng":-1.802385,"px":{"E5":174.9,"E10":159.9,"SDV":204.9,"B7":189.9}},{"id":"esso_tesco:gcqg1xwwufgb","brand":"esso_tesco","name":"ESSO","address":"HIGH STREET, TAMWORTH","pc":"B77 1LE","lat":52.600966,"lng":-1.682759,"px":{"B7":188.9,"SDV":202.9,"E10":155.9,"E5":170.9}},{"id":"esso_tesco:gcqkrck0mvu4","brand":"esso_tesco","name":"ESSO","address":"WOLVERHAMPTON ROAD, STAFFORD","pc":"ST17 9DH","lat":52.785261,"lng":-2.114616,"px":{"B7":187.9,"E10":156.9,"E5":171.9}},{"id":"esso_tesco:gcqmtfjgkvhn","brand":"esso_tesco","name":"ESSO","address":"Hartshill Road, STOKE-ON-TRENT","pc":"ST4 7NH","lat":53.009619,"lng":-2.200146,"px":{"B7":186.9,"E10":153.9,"E5":168.9}},{"id":"esso_tesco:gcqvp4xpufxb","brand":"esso_tesco","name":"ESSO","address":"Nottingham Road, DERBY","pc":"DE21 6NA","lat":52.925233,"lng":-1.440368,"px":{"B7":186.9,"SDV":200.9,"E10":155.9,"E5":170.9}},{"id":"esso_tesco:gcqyzjgnehrz","brand":"esso_tesco","name":"ESSO","address":"Newbold Road, CHESTERFIELD","pc":"S41 7AL","lat":53.250499,"lng":-1.445936,"px":{"E10":158.9,"E5":173.9,"SDV":203.9,"B7":188.9}},{"id":"esso_tesco:gcqzt5jkbzg8","brand":"esso_tesco","name":"ESSO","address":"FULWOOD ROAD, SHEFFIELD","pc":"S10 3QA","lat":53.366946,"lng":-1.530839,"px":{"B7":190.9,"SDV":205.9,"E10":159.9,"E5":174.9}},{"id":"esso_tesco:gcr3hnvgd65f","brand":"esso_tesco","name":"ESSO","address":"WELLINGBOROUGH ROAD, ABINGTON, NORTHANTS","pc":"NN1 4EY","lat":52.244722,"lng":-0.870908,"px":{"E5":170.9,"E10":155.9,"SDV":201.9,"B7":187.9}},{"id":"esso_tesco:gcr5m6pcpkgd","brand":"esso_tesco","name":"ESSO","address":"NARBOROUGH RD, LEICESTER","pc":"LE3 3FU","lat":52.613723,"lng":-1.164578,"px":{"E5":170.9,"E10":155.9,"B7":185.9,"SDV":199.9}},{"id":"esso_tesco:gcr5my8mkb0n","brand":"esso_tesco","name":"ESSO","address":"FOSSE ROAD, LEICESTER","pc":"LE3 5EX","lat":52.639147,"lng":-1.153017,"px":{"B7":189.9,"E10":159.9,"E5":174.9}},{"id":"esso_tesco:gcr6pg1qhkev","brand":"esso_tesco","name":"ESSO","address":"92 WINDMILL AVENUE, NORTHATNS","pc":"NN16 0RD","lat":52.400347,"lng":-0.712207,"px":{"E5":168.9,"E10":153.9,"SDV":201.9,"B7":187.9}},{"id":"esso_tesco:gcrg4wbv0qhj","brand":"esso_tesco","name":"ESSO","address":"Welland Road, PETERBOROUGH","pc":"PE1 3SA","lat":52.596564,"lng":-0.240653,"px":{"E5":172.9,"E10":157.9,"B7":185.9}},{"id":"esso_tesco:gcrhuzqc2nbh","brand":"esso_tesco","name":"ESSO","address":"CLIFTON LANE, NOTTINGHAM","pc":"NG11 8NA","lat":52.906288,"lng":-1.18824,"px":{"E5":175.9,"E10":160.9,"B7":190.9,"SDV":204.9}},{"id":"esso_tesco:gcrjmkb811rz","brand":"esso_tesco","name":"ESSO","address":"Valley Road, NOTTINGHAM","pc":"NG5 1JJ","lat":52.980202,"lng":-1.174797,"px":{"B7":187.9,"SDV":201.9,"E5":169.9,"E10":154.9}},{"id":"esso_tesco:gcrk5xj5tbs4","brand":"esso_tesco","name":"ESSO","address":"NOTTINGHAM RD, MELTON MOWBRAY","pc":"LE13 0NR","lat":52.773431,"lng":-0.89376,"px":{"E5":171.9,"E10":156.9,"SDV":199.9,"B7":185.9}},{"id":"esso_tesco:gcrn5ehyds5s","brand":"esso_tesco","name":"ESSO","address":"Lowmoor Road, NOTTINGHAM","pc":"NG17 7JE","lat":53.103555,"lng":-1.245806,"px":{"B7":186.9,"SDV":200.9,"E10":155.9,"E5":170.9}},{"id":"esso_tesco:gcrnhzkbr3s0","brand":"esso_tesco","name":"ESSO","address":"NOTTINGHAM ROAD, MANSFIELD","pc":"NG18 4SG","lat":53.125814,"lng":-1.19067,"px":{"B7":186.9,"SDV":201.9,"E10":155.9,"E5":170.9}},{"id":"esso_tesco:gcrpbx9f5mk0","brand":"esso_tesco","name":"ESSO","address":"WORTLEY ROAD, ROTHERHAM","pc":"S61 1LH","lat":53.435125,"lng":-1.381729,"px":{"E5":171.9,"E10":156.9,"SDV":201.9,"B7":187.9}},{"id":"esso_tesco:gcrpfhxy9rpu","brand":"esso_tesco","name":"ESSO","address":"East Bawtry Road, ROTHERHAM","pc":"S60 4BX","lat":53.419428,"lng":-1.307652,"px":{"E5":168.9,"E10":153.9,"B7":185.9,"SDV":199.9}},{"id":"esso_tesco:gcrspqv2m6rb","brand":"esso_tesco","name":"ESSO","address":"North Street, BOURNE","pc":"PE10 9AQ","lat":52.771509,"lng":-0.377076,"px":{"B7":187.9,"SDV":201.9,"E10":157.9,"E5":172.9}},{"id":"esso_tesco:gcwbns7mwf85","brand":"esso_tesco","name":"ESSO","address":"BURNCROSS ROAD, SHEFFIELD","pc":"S35 1RX","lat":53.461804,"lng":-1.467415,"px":{"B7":187.9,"SDV":201.9,"E10":157.9,"E5":172.9}},{"id":"esso_tesco:gcx0re3bn3rc","brand":"esso_tesco","name":"ESSO","address":"BAWTRY ROAD, DONCASTER","pc":"DN4 7DA","lat":53.499305,"lng":-1.073978,"px":{"SDV":202.9,"B7":187.9,"E10":154.9,"E5":169.9}},{"id":"jet:gcqdjjeqvb68","brand":"jet","name":"JET","address":"619 Alcester Rd S, Millpool Hill, Birmingham, West Midlands","pc":"B14 5EL","lat":52.414185,"lng":-1.884935,"px":{"E5":161.9,"E10":152.9,"B7":179.9,"SDV":188.9}},{"id":"jet:gcx0m777b20z","brand":"jet","name":"JET","address":"237 Warmsworth Road, Balby, Doncaster, South Yorkshire","pc":"DN4 0TP","lat":53.499943,"lng":-1.171062,"px":{"E5":163.9,"E10":152.9,"B7":179.9,"SDV":188.9}},{"id":"jet:gcx1j9p97cmr","brand":"jet","name":"JET","address":"Selby Road, Askern, Doncaster, South Yorkshire","pc":"DN6 0EP","lat":53.618997,"lng":-1.154083,"px":{"E5":163.9,"E10":152.9,"B7":179.9,"SDV":188.9}},{"id":"jet:gcxc46cnjv5k","brand":"jet","name":"JET","address":"Eastfield Rd, South Killingholme, Immingham, North Lincolnshire","pc":"DN40 3DJ","lat":53.629445,"lng":-0.251061,"px":{"E5":162.9,"E10":151.9,"B7":179.9,"SDV":188.9}},{"id":"mfg:gcnpm6cpnjnp","brand":"mfg","name":"Morrisons","address":"MFG Morrisons Ross on Wye, Station Street, ROSS ON WYE","pc":"HR9 7AG","lat":51.91575,"lng":-2.580148,"px":{"E10":154.9,"E5":169.9,"B7":187.9}},{"id":"mfg:gcp18cr0w5bk","brand":"mfg","name":"BP","address":"MFG Woolston, 170 Portsmouth Road, Woolston","pc":"S019 9AQ","lat":50.895645,"lng":-1.36342,"px":{"E10":157.9,"E5":175.9,"B7":189.9,"SDV":209.9}},{"id":"mfg:gcq04s21sfmf","brand":"mfg","name":"Esso","address":"MFG Hereford, 35 Ledbury Road, Hereford","pc":"HR1 2SZ","lat":52.054866,"lng":-2.702425,"px":{"E10":157.9,"E5":175.9,"B7":189.9,"SDV":209.9}},{"id":"mfg:gcq0zh2nsvnd","brand":"mfg","name":"Texaco","address":"MFG Bromyard, 1 Bromyard Bypass, Bromyard","pc":"HR7 4DJ","lat":52.187575,"lng":-2.50467,"px":{"E10":151.9,"E5":169.9,"B7":181.9,"SDV":205.9}},{"id":"mfg:gcq114yv784c","brand":"mfg","name":"Morrisons","address":"MFG Morrisons Leominster, Barons Cross Road, LEOMINSTER","pc":"HR6 8RP","lat":52.223039,"lng":-2.759131,"px":{"E10":154.9,"E5":169.9,"B7":184.9}},{"id":"mfg:gcq2ed71m5zb","brand":"mfg","name":"Morrisons","address":"MFG Morrisons Malvern, Roman Way, MALVERN","pc":"WR14 1PZ","lat":52.131735,"lng":-2.302784,"px":{"E10":154.9,"E5":169.9,"B7":186.9}},{"id":"mfg:gcq2vs1hfsp5","brand":"mfg","name":"Esso","address":"MFG Commandery, 20 Bath Road, Worcester","pc":"WR5 3EL","lat":52.185896,"lng":-2.217748,"px":{"E10":156.9,"E5":175.9,"B7":188.9,"SDV":209.9}},{"id":"mfg:gcq2ysd2vkvg","brand":"mfg","name":"Esso","address":"MFG Nunnery Park, Nunnery Park, Horn Hill Road","pc":"WR4 0SX","lat":52.18796,"lng":-2.17197,"px":{"E10":155.9,"E5":175.9,"B7":187.9,"SDV":209.9}},{"id":"mfg:gcq3j2dm4rqj","brand":"mfg","name":"Esso","address":"MFG Northwick, Ombersley Road, Worcester","pc":"WR3 7BT","lat":52.210676,"lng":-2.22703,"px":{"E10":157.9,"E5":175.9,"B7":189.9,"SDV":209.9}},{"id":"mfg:gcq3j2knt8y7","brand":"mfg","name":"Texaco","address":"MFG St. Stephens, 46-48 Droitwich Road, Worcester","pc":"WR3 7JF","lat":52.209525,"lng":-2.224487,"px":{"E10":157.9,"E5":169.9,"B7":189.9,"SDV":205.9}},{"id":"mfg:gcq3rzsz58x6","brand":"mfg","name":"Esso","address":"MFG Droitwich, Worcester Road, Wychbold / Droitwich","pc":"WR9 7PH","lat":52.29338,"lng":-2.113678,"px":{"E10":159.9,"E5":175.9,"B7":191.9,"SDV":209.9}},{"id":"mfg:gcq3uvu96kvb","brand":"mfg","name":"Esso","address":"MFG Viaduct, 138 Worcester Road, Kidderminster","pc":"DY10 1JR","lat":52.370693,"lng":-2.245913,"px":{"E10":159.9,"E5":175.9,"B7":191.9,"SDV":209.9}},{"id":"mfg:gcq3uvumqj6k","brand":"mfg","name":"BP","address":"MFG Kidderminster, Worcester Road, Hoobrook / Kidderminster","pc":"DY10 1JS","lat":52.371383,"lng":-2.2461,"px":{"E10":159.9,"E5":175.9,"B7":191.9,"SDV":209.9}},{"id":"mfg:gcq5yd4r7r0j","brand":"mfg","name":"Morrisons","address":"MFG Morrisons Wellington, Spring Hill, TELFORD","pc":"TF1 1RP","lat":52.702699,"lng":-2.523626,"px":{"E10":157.9,"E5":169.9,"B7":188.9}},{"id":"mfg:gcq5zbsdmmu7","brand":"mfg","name":"Esso","address":"MFG Ketley, Holyhead Road, Ketley","pc":"TF1 5DY","lat":52.693594,"lng":-2.465513,"px":{"E10":159.9,"E5":175.9,"B7":189.9,"SDV":209.9}},{"id":"mfg:gcq6rffhnyb0","brand":"mfg","name":"Jet","address":"MFG Pedmore, Gauden Road, Pedmore Fields / Stourbridge","pc":"DY9 9HJ","lat":52.442587,"lng":-2.117325,"px":{"E10":156.9,"E5":169.9,"B7":187.9,"SDV":205.9}},{"id":"mfg:gcq6wy97fhuw","brand":"mfg","name":"Morrisons","address":"MFG Morrisons Kingswinford, Stalling's Lane, DUDLEY","pc":"DY6 7SH","lat":52.507079,"lng":-2.162498,"px":{"E10":153.9,"E5":169.9,"B7":187.9}},{"id":"mfg:gcq6xg0g79rs","brand":"mfg","name":"Jet","address":"MFG Merry Hill, The Waterfront, Brierly Hill","pc":"DY5 1LL","lat":52.487748,"lng":-2.119171,"px":{"E10":156.9,"E5":169.9,"B7":189.9,"SDV":205.9}},{"id":"mfg:gcq6yxfym9jx","brand":"mfg","name":"Texaco","address":"MFG Penn, Warstones Road, Penn","pc":"WV4 4LB","lat":52.5583,"lng":-2.171273,"px":{"E10":155.9,"E5":169.9,"B7":187.9,"SDV":205.9}},{"id":"mfg:gcq6zfc3gg5t","brand":"mfg","name":"Texaco","address":"MFG Clarence Street, Clarence Street, Dudley","pc":"DY3 1UP","lat":52.530072,"lng":-2.118479,"px":{"E10":156.9,"E5":169.9,"B7":188.9,"SDV":205.9}},{"id":"mfg:gcq72n27dk1f","brand":"mfg","name":"ESSO","address":"MFG Mound Way, Parkway, Madeley-By-Pass / Telford","pc":"TF7 5RQ","lat":52.637494,"lng":-2.460495,"px":{"E10":159.9,"E5":175.9,"B7":191.9,"SDV":209.9}},{"id":"mfg:gcq72thjnpg1","brand":"mfg","name":"Jet","address":"MFG Telford, Bridgnorth Road, Sutton Hill / Telford","pc":"TF7 4JG","lat":52.630905,"lng":-2.43321,"px":{"E10":159.9,"E5":169.9,"B7":191.9,"SDV":205.9}},{"id":"mfg:gcq7bw7656qg","brand":"mfg","name":"Esso","address":"MFG Walkers Clock, New Trench Road, Donnington","pc":"TF2 8JY","lat":52.725118,"lng":-2.434353,"px":{"E10":159.9,"E5":175.9,"B7":189.9,"SDV":209.9}},{"id":"mfg:gcq7nku23tk5","brand":"mfg","name":"Esso","address":"MFG Compton, Bridgnorth Road, Wolverhampton","pc":"WV6 8AG","lat":52.584758,"lng":-2.180373,"px":{"E10":155.9,"E5":175.9,"B7":187.9,"SDV":209.9}},{"id":"mfg:gcq7qc1brszf","brand":"mfg","name":"Esso","address":"MFG Claregate, 60 Codsall Road, Tettenhall / Wolverhampton","pc":"WV6 9QP","lat":52.608101,"lng":-2.161571,"px":{"E10":155.9,"E5":175.9,"B7":187.9,"SDV":209.9}},{"id":"mfg:gcq7rsgyf9b3","brand":"mfg","name":"BP","address":"MFG Fordhouses, Stafford Road, Wolverhampton","pc":"WV10 7EG","lat":52.6298,"lng":-2.12609,"px":{"E10":157.9,"E5":175.9,"B7":189.9,"SDV":209.9}},{"id":"mfg:gcq7z8pr3hy1","brand":"mfg","name":"BP","address":"MFG Gailey, Watling Street, Gailey","pc":"ST19 5PR","lat":52.6917,"lng":-2.12134,"px":{"E10":157.9,"E5":175.9,"B7":189.9,"SDV":209.9}},{"id":"mfg:gcq87bkdh74j","brand":"mfg","name":"Morrisons","address":"MFG Morrisons Evesham, Charity Crescent, EVESHAM","pc":"WR11 2UT","lat":52.076929,"lng":-1.938215,"px":{"E10":157.9,"E5":169.9,"B7":189.9}},{"id":"mfg:gcq8v8hjvvh3","brand":"mfg","name":"ESSO","address":"MFG Bidford-On-Avon, 95 High Street, Bidford On Avon","pc":"B50 4BD","lat":52.1641,"lng":-1.86193,"px":{"E10":159.9,"E5":175.9,"B7":189.9,"SDV":209.9}},{"id":"mfg:gcq981w3ukje","brand":"mfg","name":"Esso","address":"MFG Wychbold, A38 Worcester Road, Bromsgrove","pc":"B61 7ER","lat":52.303484,"lng":-2.100602,"px":{"E10":159.9,"E5":175.9,"B7":191.9,"SDV":209.9}},{"id":"mfg:gcq99h1m39e9","brand":"mfg","name":"Morrisons","address":"MFG Morrisons Bromsgrove, Buntsford Park Road, BROMSGROVE","pc":"B60 3DX","lat":52.317804,"lng":-2.063644,"px":{"E10":154.9,"E5":169.9,"B7":186.9}},{"id":"mfg:gcq9gmzyzd6p","brand":"mfg","name":"Esso","address":"MFG Bridge Hopwood, Birmingham Road, Hopwood","pc":"B48 7AR","lat":52.371625,"lng":-1.955585,"px":{"E10":157.9,"E5":175.9,"B7":189.9,"SDV":209.9}},{"id":"mfg:gcq9s9hezxmx","brand":"mfg","name":"Morrisons","address":"MFG Morrisons Redditch, Clearwell Road, REDDITCH","pc":"B98 0SW","lat":52.301099,"lng":-1.905112,"px":{"E10":150.9,"E5":169.9,"B7":184.9}},{"id":"mfg:gcqbbq54h45q","brand":"mfg","name":"Texaco","address":"MFG Tollhouse, Alcester Road, Stratford Upon Avon","pc":"CV37 9JJ","lat":52.1964,"lng":-1.74253,"px":{"E10":156.9,"E5":169.9,"B7":189.9,"SDV":205.9}},{"id":"mfg:gcqbbvthzycy","brand":"mfg","name":"Morrisons","address":"MFG Morrisons Stratford, Alcester Road, STRATFORD UPON AVON","pc":"CV37 9DA","lat":52.194151,"lng":-1.717652,"px":{"E10":155.9,"E5":169.9,"B7":188.9}},{"id":"mfg:gcqckyh989sm","brand":"mfg","name":"Morrisons","address":"MFG Morrisons Leamington Spa, Old Warwick Road, LEAMINGTON SPA","pc":"CV31 3NT","lat":52.284202,"lng":-1.542865,"px":{"E10":155.9,"E5":169.9,"B7":186.9,"SDV":196.9}},{"id":"mfg:gcqcmpb2h3jq","brand":"mfg","name":"Esso","address":"MFG Leamington, Clarendon Avenue, Leamington Spa","pc":"CV32 5PY","lat":52.293555,"lng":-1.537553,"px":{"E10":158.9,"E5":175.9,"B7":187.9,"SDV":209.9}},{"id":"mfg:gcqcspy194q7","brand":"mfg","name":"Esso","address":"MFG Kenilworth, 173 Warwick Road, Kenilworth","pc":"CV8 1HY","lat":52.337764,"lng":-1.57374,"px":{"E10":157.9,"E5":175.9,"B7":187.9,"SDV":209.9}},{"id":"mfg:gcqctehgy2cm","brand":"mfg","name":"Esso","address":"MFG Cubbington, 77 Rugby Road, Cubbington","pc":"CV32 7HY","lat":52.31205,"lng":-1.50932,"px":{"E10":158.9,"E5":175.9,"B7":187.9,"SDV":209.9}},{"id":"mfg:gcqcywypxuhy","brand":"mfg","name":"ESSO","address":"MFG Ryton, 725 London Road, Ryton","pc":"CV3 4EX","lat":52.377256,"lng":-1.463589,"px":{"E10":159.9,"E5":175.9,"B7":187.9,"SDV":209.9}},{"id":"mfg:gcqd092r2deq","brand":"mfg","name":"Esso","address":"MFG Bell, A491, Stourbridge","pc":"DY9 9XU","lat":52.390938,"lng":-2.087033,"px":{"E10":156.9,"E5":175.9,"B7":187.9,"SDV":209.9}},{"id":"mfg:gcqd2z0eqjcr","brand":"mfg","name":"Esso","address":"MFG Overend, Congreaves Road, Cradley Heath / Warley","pc":"B64 7EA","lat":52.4658,"lng":-2.07547,"px":{"E10":157.9,"E5":175.9,"B7":189.9,"SDV":209.9}},{"id":"mfg:gcqd3hu2ysv6","brand":"mfg","name":"ESSO","address":"MFG Shortcross, Stourbridge Road, Birmingham","pc":"B63 3UA","lat":52.453005,"lng":-2.059307,"px":{"E10":157.9,"E5":175.9,"B7":189.9,"SDV":209.9}},{"id":"mfg:gcqd46d07n28","brand":"mfg","name":"Morrisons","address":"MFG Morrisons Birmingham Rubery, Bristol Road, BIRMINGHAM","pc":"B45 9NY","lat":52.396622,"lng":-2.007622,"px":{"E10":152.9,"E5":169.9,"B7":185.9}},{"id":"mfg:gcqd8en63qzv","brand":"mfg","name":"Texaco","address":"MFG Netherton, Halesowen Road, Netherton","pc":"DY2 9PS","lat":52.487606,"lng":-2.078755,"px":{"E10":156.9,"E5":169.9,"B7":187.9,"SDV":205.9}},{"id":"mfg:gcqd8re1d9nr","brand":"mfg","name":"Texaco","address":"MFG Eve Hill, Wolverhampton Street, Dudley","pc":"DY1 3AW","lat":52.512166,"lng":-2.094153,"px":{"E10":156.9,"E5":169.9,"B7":188.9,"SDV":205.9}},{"id":"mfg:gcqd9v3urv78","brand":"mfg","name":"ESSO","address":"MFG Osprey, Warley, Oldbury","pc":"B69 2BH","lat":52.5003,"lng":-2.02973,"px":{"E10":157.9,"E5":175.9,"B7":189.9,"SDV":209.9}},{"id":"mfg:gcqdb77cc89h","brand":"mfg","name":"Esso","address":"MFG Sedgley Road, Sedgley Road, Dudley","pc":"DY1 4LQ","lat":52.532805,"lng":-2.093173,"px":{"E10":156.9,"E5":175.9,"B7":187.9,"SDV":209.9}},{"id":"mfg:gcqdbu18vtx7","brand":"mfg","name":"Texaco","address":"MFG Tipton, Bloomfield Road, Tipton","pc":"DY4 9EB","lat":52.53678,"lng":-2.07411,"px":{"E10":155.9,"E5":169.9,"B7":189.9,"SDV":205.9}},{"id":"mfg:gcqdcmqvvkwp","brand":"mfg","name":"Esso","address":"MFG Gospel Oak, Gospel Oak Road, Tipton","pc":"DY4 0DS","lat":52.5445,"lng":-2.04494,"px":{"E10":157.9,"E5":175.9,"B7":189.9,"SDV":209.9}},{"id":"mfg:gcqdcznw2gqy","brand":"mfg","name":"Morrisons","address":"MFG Morrisons Wednesbury, 60 Trouse Lane, WEDNESBURY","pc":"WS10 7HS","lat":52.554192,"lng":-2.023503,"px":{"E10":153.9,"E5":169.9,"B7":186.9}},{"id":"mfg:gcqdd2frqf4s","brand":"mfg","name":"Texaco","address":"MFG Brandhall, 453 Wolverhampton Road, Oldbury","pc":"B68 8DD","lat":52.476079,"lng":-2.007115,"px":{"E10":157.9,"E5":169.9,"B7":186.9,"SDV":205.9}},{"id":"mfg:gcqddeh7t5pf","brand":"mfg","name":"Esso","address":"MFG Derry, Londonderry Road, Oldbury","pc":"B68 9NB","lat":52.4878,"lng":-1.99345,"px":{"E10":157.9,"E5":175.9,"B7":189.9,"SDV":209.9}},{"id":"mfg:gcqde0rsz1w8","brand":"mfg","name":"Jet","address":"MFG Hagley Road, 477-489 Hagley Road, Smethwick","pc":"B66 4AU","lat":52.4729,"lng":-1.96693,"px":{"E10":157.9,"E5":169.9,"B7":187.9,"SDV":205.9}},{"id":"mfg:gcqde1p0sfj2","brand":"mfg","name":"Esso","address":"MFG Bearwood, Sandon Road, Bearwood","pc":"B66 4AB","lat":52.476293,"lng":-1.967715,"px":{"E10":159.9,"E5":175.9,"B7":188.9,"SDV":209.9}},{"id":"mfg:gcqdefqkwxrt","brand":"mfg","name":"Texaco","address":"MFG Parkside, Icknield Port Road, Edgbaston","pc":"B16 0BJ","lat":52.483875,"lng":-1.935708,"px":{"E10":157.9,"E5":169.9,"B7":187.9,"SDV":205.9}},{"id":"mfg:gcqdey0uytst","brand":"mfg","name":"Texaco","address":"MFG Handsworth, 9 Holyhead Road, Handsworth / Birmingham","pc":"B21 0LA","lat":52.504508,"lng":-1.943265,"px":{"E10":156.9,"E5":169.9,"B7":187.9}},{"id":"mfg:gcqdfpmtmtef","brand":"mfg","name":"Esso","address":"MFG Wednesbury, Walsall Street, Wednesbury","pc":"WS10 9HA","lat":52.555405,"lng":-2.01369,"px":{"E10":157.9,"E5":175.9,"B7":189.9,"SDV":209.9}},{"id":"mfg:gcqdgyw687hs","brand":"mfg","name":"Esso","address":"MFG Great Barr, 76 Birmingham Road, Great Barr","pc":"B43 6NT","lat":52.5508,"lng":-1.93598,"px":{"E10":159.9,"E5":175.9,"B7":187.9,"SDV":209.9}},{"id":"mfg:gcqdhj3w6sdd","brand":"mfg","name":"ESSO","address":"MFG Kings Norton, Pershore Road, Birmingham","pc":"B30 3JX","lat":52.412749,"lng":-1.931423,"px":{"E10":156.9,"E5":175.9,"B7":187.9,"SDV":209.9}},{"id":"mfg:gcqdjmw886jg","brand":"mfg","name":"BP","address":"MFG Yardley Wood, Yardley Wood Road, Yardley Wood / Birmingham","pc":"B14 4QA","lat":52.413122,"lng":-1.869717,"px":{"E10":153.9,"E5":175.9,"B7":185.9,"SDV":209.9}},{"id":"mfg:gcqdk7ygtfwe","brand":"mfg","name":"Texaco","address":"MFG Pershore, 593 Pershore Rd, Birmingham","pc":"B29 7HA","lat":52.447972,"lng":-1.913082,"px":{"E10":154.9,"E5":169.9,"B7":186.9,"SDV":205.9}},{"id":"mfg:gcqdptu29ckz","brand":"mfg","name":"Esso","address":"MFG Brueton Park, WARWICK ROAD, SOLIHULL","pc":"B91 3DD","lat":52.414492,"lng":-1.773867,"px":{"E10":159.9,"E5":175.9,"B7":189.9,"SDV":209.9}},{"id":"mfg:gcqdqfbbz0hr","brand":"mfg","name":"Texaco","address":"MFG Olton, 10 - 24 Warwick Road, Olton, Solihull","pc":"B92 7HS","lat":52.441994,"lng":-1.811408,"px":{"E10":155.9,"E5":169.9,"B7":187.9,"SDV":205.9}},{"id":"mfg:gcqdrje9yhzm","brand":"mfg","name":"ESSO","address":"MFG Whirlwind, Coventry Road, Birmingham","pc":"B26 3HL","lat":52.457297,"lng":-1.796684,"px":{"E10":155.9,"E5":175.9,"B7":187.9,"SDV":209.9}},{"id":"mfg:gcqdrs6jthmp","brand":"mfg","name":"Morrisons","address":"MFG Morrisons Sheldon, Coventry Road, BIRMINGHAM","pc":"B26 3PG","lat":52.451072,"lng":-1.776817,"px":{"E10":153.9,"E5":169.9,"B7":185.9}},{"id":"mfg:gcqdss2bupwm","brand":"mfg","name":"Texaco","address":"MFG New John Street, New John Street West, Hockley / Birmingham","pc":"B19 3TZ","lat":52.494219,"lng":-1.910411,"px":{"E10":156.9,"E5":169.9,"B7":187.9,"SDV":205.9}},{"id":"mfg:gcqdt367bs41","brand":"mfg","name":"Esso","address":"MFG Waterlinks, Watery Lane, Birmingham","pc":"B9 4HF","lat":52.478235,"lng":-1.875548,"px":{"E10":156.9,"E5":175.9,"B7":187.9,"SDV":209.9}},{"id":"mfg:gcqdt82x6783","brand":"mfg","name":"Morrisons","address":"MFG Morrisons Birmingham Small Heath, Coventry Road, BIRMINGHAM","pc":"B10 0XA","lat":52.47334,"lng":-1.866892,"px":{"E10":153.9,"E5":169.9,"B7":185.9,"SDV":195.9}},{"id":"mfg:gcqdtw2j4qjq","brand":"mfg","name":"ESSO","address":"MFG Expressway, Lichfield Road, Aston  Birmingham","pc":"B6 7SS","lat":52.505927,"lng":-1.867572,"px":{"E10":159.9,"E5":175.9,"B7":189.9,"SDV":209.9}},{"id":"mfg:gcqdx4jr4t12","brand":"mfg","name":"Jet","address":"MFG Stechford, Flaxley Road, Stechford, Birmingham","pc":"B33 9AL","lat":52.482918,"lng":-1.794439,"px":{"E10":155.9,"E5":169.9,"B7":187.9}},{"id":"mfg:gcqdxvs2j88h","brand":"mfg","name":"Morrisons","address":"MFG Morrisons Birmingham Castle Bromwich, 264 Chester Road, BIRMINGHAM","pc":"B36 0LB","lat":52.500919,"lng":-1.762726,"px":{"E10":153.9,"E5":169.9,"B7":185.9}},{"id":"mfg:gcqdy120p0xf","brand":"mfg","name":"Esso","address":"MFG Sixways, Gravely Hill North, Birmingham","pc":"B23 6BJ","lat":52.521518,"lng":-1.845392,"px":{"E10":159.9,"E5":175.9,"B7":189.9,"SDV":209.9}},{"id":"mfg:gcqdybtqxc9q","brand":"mfg","name":"Esso","address":"MFG Kingsbury Road, 912 Kingsbury Road, Birmingham","pc":"B24 9PY","lat":52.51852,"lng":-1.8052,"px":{"E10":155.9,"E5":175.9,"B7":185.9,"SDV":209.9}},{"id":"mfg:gcqe0bc0fcj9","brand":"mfg","name":"Morrisons","address":"MFG Morrisons Bilston, Black Country Route, WOLVERHAMPTON","pc":"WV14 0DZ","lat":52.562848,"lng":-2.074917,"px":{"E10":153.9,"E5":169.9,"B7":185.9}},{"id":"mfg:gcqe14fb42hb","brand":"mfg","name":"Texaco","address":"MFG Bilston, Willenhall Road, Bilston","pc":"WV14 6NP","lat":52.5737,"lng":-2.06155,"px":{"E10":157.9,"E5":169.9,"B7":189.9,"SDV":205.9}},{"id":"mfg:gcqe1m1847vp","brand":"mfg","name":"Morrisons","address":"MFG Morrisons Willenhall, Middle Piece Way, WILLENHALL","pc":"WV13 1QE","lat":52.586081,"lng":-2.05228,"px":{"E10":153.9,"E5":169.9,"B7":186.9,"SDV":196.9}},{"id":"mfg:gcqe1x3gynut","brand":"mfg","name":"Jet","address":"MFG Lane Head, High Road, Willenhall","pc":"WV12 4JQ","lat":52.5991,"lng":-2.04079,"px":{"E10":156.9,"E5":169.9,"B7":189.9}},{"id":"mfg:gcqe260c85nq","brand":"mfg","name":"Texaco","address":"MFG Royal Oak, Blackhalve Lane, Wednesfield","pc":"WV11 1BQ","lat":52.6138,"lng":-2.09735,"px":{"E10":156.9,"E5":169.9,"B7":189.9,"SDV":205.9}},{"id":"mfg:gcqe5h429g5g","brand":"mfg","name":"Esso","address":"MFG Bluecoats, 1 Springhill Road, Walsall","pc":"WS1 2LN","lat":52.580669,"lng":-1.974369,"px":{"E10":154.9,"E5":175.9,"B7":184.9,"SDV":209.9}},{"id":"mfg:gcqe6h37g3qg","brand":"mfg","name":"BP","address":"MFG Bloxwich, Tintern Crescent, Bloxwich","pc":"WS3 2TZ","lat":52.626536,"lng":-2.019619,"px":{"E10":156.9,"E5":175.9,"B7":189.9,"SDV":209.9}},{"id":"mfg:gcqeeyj8krf8","brand":"mfg","name":"Morrisons","address":"MFG Morrisons Burntwood, Milestone Way, BURNTWOOD","pc":"WS7 3XA","lat":52.679528,"lng":-1.936841,"px":{"E10":151.9,"E5":169.9,"B7":183.9}},{"id":"mfg:gcqef7k16bt1","brand":"mfg","name":"Texaco","address":"MFG Chase, Cannock Road, Hednesford / Cannock Chase","pc":"WS12 4AA","lat":52.7085,"lng":-2.00488,"px":{"E10":152.9,"E5":169.9,"B7":185.9,"SDV":205.9}},{"id":"mfg:gcqek04tgush","brand":"mfg","name":"ESSO","address":"MFG Red House, Middlemore Lane / Aldridge, Walsall","pc":"WS9 8DL","lat":52.603551,"lng":-1.929994,"px":{"E10":157.9,"E5":175.9,"B7":187.9,"SDV":209.9}},{"id":"mfg:gcqen8smdq56","brand":"mfg","name":"Texaco","address":"MFG Fircroft, Coleshill Road, Sutton Coldfield","pc":"B75 7AA","lat":52.562317,"lng":-1.817793,"px":{"E10":157.9,"B7":189.9,"SDV":205.9}},{"id":"mfg:gcqenveq1zu3","brand":"mfg","name":"ESSO","address":"MFG Roughley, 81-85 Slade Road, Sutton Coldfield","pc":"B75 5PB","lat":52.589878,"lng":-1.8082,"px":{"E10":159.9,"E5":175.9,"B7":189.9,"SDV":209.9}},{"id":"mfg:gcqewpejny22","brand":"mfg","name":"Morrisons","address":"MFG Morrisons Lichfield, Beacon Street, LICHFIELD","pc":"WS13 7QP","lat":52.688575,"lng":-1.841293,"px":{"E10":154.9,"E5":169.9,"B7":186.9,"SDV":196.9}},{"id":"mfg:gcqey97e92xd","brand":"mfg","name":"ESSO","address":"MFG Eastern Avenue, Eastern Avenue, Lichfield","pc":"WS13 7SA","lat":52.6979,"lng":-1.81886,"px":{"E10":156.9,"E5":175.9,"B7":187.9,"SDV":209.9}},{"id":"mfg:gcqf08g6ue72","brand":"mfg","name":"Esso","address":"MFG Knowle, 102 Kenilworth Road, Knowle","pc":"B93 0JD","lat":52.387422,"lng":-1.731179,"px":{"E10":157.9,"E5":175.9,"B7":187.9,"SDV":209.9}},{"id":"mfg:gcqf2pkt74qd","brand":"mfg","name":"Esso","address":"MFG Marston Green, 53 Station Road, Marston Green, Solihull","pc":"B37 7AU","lat":52.467497,"lng":-1.751495,"px":{"E10":157.9,"E5":175.9,"B7":189.9,"SDV":209.9}},{"id":"mfg:gcqf73xb8021","brand":"mfg","name":"ESSO","address":"MFG Oak, Birmingham Road, Allesley","pc":"CV5 9AN","lat":52.435085,"lng":-1.604347,"px":{"E10":159.9,"E5":175.9,"B7":189.9,"SDV":209.9}},{"id":"mfg:gcqfjbwr1ejx","brand":"mfg","name":"Texaco","address":"MFG Coventry, Blackprince Avenue, Coventry","pc":"CV3 5JE","lat":52.386778,"lng":-1.496472,"px":{"E10":156.9,"E5":169.9,"B7":187.9,"SDV":205.9}},{"id":"mfg:gcqfjjt2wee4","brand":"mfg","name":"Morrisons","address":"MFG Morrisons Coventry Holyhead Road, Alvis Retail Park, COVENTRY","pc":"CV5 8BX","lat":52.41313,"lng":-1.530593,"px":{"E10":152.9,"E5":169.9,"B7":185.9}},{"id":"mfg:gcqfjk3ye5rc","brand":"mfg","name":"Esso","address":"MFG Butts Road, Butts Road, Coventry","pc":"CV1 3GU","lat":52.407292,"lng":-1.524557,"px":{"E10":157.9,"E5":175.9,"B7":189.9,"SDV":209.9}},{"id":"mfg:gcqfm2zw18jd","brand":"mfg","name":"Texaco","address":"MFG Radford, Jubilee Crescent, Radford","pc":"CV6 3EX","lat":52.431908,"lng":-1.516728,"px":{"E10":155.9,"E5":169.9,"B7":187.9,"SDV":205.9}},{"id":"mfg:gcqfp30ntnry","brand":"mfg","name":"BP","address":"MFG Binley Woods, Eastern Bypass, Coventry","pc":"CV3 2ZZ","lat":52.389456,"lng":-1.438984,"px":{"E10":161.9,"E5":175.9,"B7":189.9,"SDV":209.9}},{"id":"mfg:gcqfp4yg6jr3","brand":"mfg","name":"Esso","address":"MFG Rugby Road, Willenhall Lane, Coventry","pc":"CV3 2EA","lat":52.398505,"lng":-1.44083,"px":{"E10":155.9,"E5":175.9,"B7":187.9,"SDV":209.9}},{"id":"mfg:gcqfp69qem7e","brand":"mfg","name":"Morrisons","address":"MFG Morrisons Coventry Binley, Skipworth Road, COVENTRY","pc":"CV3 2XA","lat":52.39769,"lng":-1.437348,"px":{"E10":152.9,"E5":169.9,"B7":185.9}},{"id":"mfg:gcqfr0xcs212","brand":"mfg","name":"Esso","address":"MFG Walsgrave, Hinckley Road, Coventry","pc":"CV2 2QN","lat":52.429762,"lng":-1.439368,"px":{"E10":154.9,"E5":175.9,"B7":186.9,"SDV":209.9}},{"id":"mfg:gcqfw387gd2x","brand":"mfg","name":"Esso","address":"MFG Bedworth, New Town Road, Bedworth","pc":"CV12 8QG","lat":52.4796,"lng":-1.48266,"px":{"E10":154.9,"E5":175.9,"B7":187.9,"SDV":209.9}},{"id":"mfg:gcqfz493ggmu","brand":"mfg","name":"Esso","address":"MFG Weddington, 118 Hinckley Road, Nuneaton","pc":"CV11 6LS","lat":52.5287,"lng":-1.44831,"px":{"E10":157.9,"E5":175.9,"B7":189.9,"SDV":209.9}},{"id":"mfg:gcqg3cu3tehz","brand":"mfg","name":"Morrisons","address":"MFG Morrisons Tamworth, Hilmore Way, TAMWORTH","pc":"B77 2NY","lat":52.612427,"lng":-1.674829,"px":{"E10":153.9,"E5":169.9,"B7":186.9}},{"id":"mfg:gcqgvg923rsy","brand":"mfg","name":"ESSO","address":"MFG Measham, Ashby Road  New Street, Measham  Swadlincote","pc":"DE12 7JW","lat":52.70974,"lng":-1.50335,"px":{"E10":157.9,"E5":175.9,"B7":187.9,"SDV":209.9}},{"id":"mfg:gcqhzrsm8h2d","brand":"mfg","name":"Morrisons","address":"MFG Morrisons Market Drayton, Maer Lane, MARKET DRAYTON","pc":"TF9 3AL","lat":52.908377,"lng":-2.488059,"px":{"E10":155.9,"E5":169.9,"B7":181.9}},{"id":"mfg:gcqk1y9mprqr","brand":"mfg","name":"Esso","address":"MFG Lower Bar, Lower Bar, Newport","pc":"TF10 7JA","lat":52.770979,"lng":-2.381997,"px":{"E10":158.9,"E5":175.9,"B7":188.9,"SDV":209.9}},{"id":"mfg:gcqkrwphgbfx","brand":"mfg","name":"ESSO","address":"MFG Stafford, Foregate Street, Stafford","pc":"ST16 2PD","lat":52.8121,"lng":-2.12157,"px":{"E10":157.9,"E5":175.9,"B7":189.9,"SDV":209.9}},{"id":"mfg:gcqkzntpynpt","brand":"mfg","name":"Morrisons","address":"MFG Morrisons Stone, Mill Street, STONE","pc":"ST15 8BA","lat":52.90328,"lng":-2.146186,"px":{"E10":150.9,"E5":169.9,"B7":184.9}},{"id":"mfg:gcqmq6jq4qcm","brand":"mfg","name":"ESSO","address":"MFG Trentham, Longton Road, Trentham","pc":"ST4 8BU","lat":52.966155,"lng":-2.178971,"px":{"E10":156.9,"E5":175.9,"B7":186.9,"SDV":209.9}},{"id":"mfg:gcqmt3g17205","brand":"mfg","name":"Morrisons","address":"MFG Morrisons Newcastle under Lyme Goose Street, Goose St, NEWCASTLE UNDER LYME","pc":"ST5 3HY","lat":53.007875,"lng":-2.225965,"px":{"E10":150.9,"E5":169.9,"B7":184.9,"SDV":194.9}},{"id":"mfg:gcqmth90dm1x","brand":"mfg","name":"Morrisons","address":"MFG Morrisons Newcastle under Lyme Milehouse Lane, Lower Milehouse Lane, NEWCASTLE UNDER LYME","pc":"ST5 9BE","lat":53.02288,"lng":-2.239739,"px":{"E10":150.9,"E5":169.9,"B7":184.9}},{"id":"mfg:gcqmw63vd6q3","brand":"mfg","name":"Esso","address":"MFG Stoke Road, Stoke Road, Stoke On Trent","pc":"ST4 2QX","lat":53.011363,"lng":-2.183771,"px":{"E10":154.9,"E5":175.9,"B7":186.9,"SDV":209.9}},{"id":"mfg:gcqmwjfs20k5","brand":"mfg","name":"Morrisons","address":"MFG Morrisons Stoke, Ridgehouse Drive, STOKE-ON-TRENT","pc":"ST1 5NY","lat":53.030364,"lng":-2.193827,"px":{"E10":150.9,"E5":169.9,"B7":184.9}},{"id":"mfg:gcqmwxkd09sr","brand":"mfg","name":"Texaco","address":"MFG Sneyd Green, Hanley Road, Sneyd Green / Stoke On Trent","pc":"ST1 6BE","lat":53.038225,"lng":-2.169086,"px":{"E10":155.9,"E5":169.9,"B7":187.9,"SDV":205.9}},{"id":"mfg:gcqmyjdcwypu","brand":"mfg","name":"Jet","address":"MFG Stoke on Trent, Biddulph Road, Stoke on Trent","pc":"ST6 6SH","lat":53.072495,"lng":-2.193189,"px":{"E10":155.9,"E5":169.9,"B7":186.9}},{"id":"mfg:gcqqnwsw807u","brand":"mfg","name":"ESSO","address":"MFG Biddulph, Congleton Road, Biddulph","pc":"ST8 6QW","lat":53.122761,"lng":-2.169108,"px":{"E10":155.9,"E5":175.9,"B7":187.9,"SDV":209.9}},{"id":"mfg:gcqs5umkc6xp","brand":"mfg","name":"ESSO","address":"MFG Rugeley, Western Spring Road, Rugeley","pc":"WS15 2AS","lat":52.758551,"lng":-1.937307,"px":{"E10":156.9,"E5":175.9,"B7":188.9,"SDV":209.9}},{"id":"mfg:gcqt27gegudr","brand":"mfg","name":"BP","address":"MFG Meir, Uttoxeter Road, Stoke-on-Trent","pc":"ST3 6HE","lat":52.97537,"lng":-2.093418,"px":{"E10":157.9,"E5":175.9,"B7":189.9,"SDV":209.9}},{"id":"mfg:gcqu6550vuep","brand":"mfg","name":"Morrisons","address":"MFG Morrisons Burton upon Trent, Wellington Road, BURTON ON TRENT","pc":"DE14 3JP","lat":52.794954,"lng":-1.665551,"px":{"E10":154.9,"E5":169.9,"B7":187.9}},{"id":"mfg:gcqu6rjhmsz6","brand":"mfg","name":"Esso","address":"MFG Belvedere, Belvedere Road, Burton On Trent","pc":"DE13 0RF","lat":52.817528,"lng":-1.651823,"px":{"E10":159.9,"E5":175.9,"B7":189.9,"SDV":209.9}},{"id":"mfg:gcqu6zhvrr3f","brand":"mfg","name":"Shell","address":"MFG Horninglow, Derby Road, Burton On Trent","pc":"DE14 1RY","lat":52.817713,"lng":-1.630126,"px":{"E10":161.9,"E5":179.9,"B7":191.9,"SDV":209.9}},{"id":"mfg:gcqu72fb7wt8","brand":"mfg","name":"Jet","address":"MFG Burton on Trent, 290 Stanton Road, Burton on Trent","pc":"DE15 9SQ","lat":52.782518,"lng":-1.611056,"px":{"E10":157.9,"E5":169.9,"B7":189.9,"SDV":205.9}},{"id":"mfg:gcquhwwnw9d5","brand":"mfg","name":"Morrisons","address":"MFG Morrisons Swadlincote, Coppice Side, SWADLINCOTE","pc":"DE11 8HL","lat":52.771205,"lng":-1.551537,"px":{"E10":151.7,"E5":169.9,"B7":185.7}},{"id":"mfg:gcqungj63mqn","brand":"mfg","name":"Esso","address":"MFG Ashby, 52 Nottingham Road, Ashby-De-La-Zouch","pc":"LE65 1DR","lat":52.75127,"lng":-1.45391,"px":{"E10":155.9,"E5":175.9,"B7":187.9,"SDV":209.9}},{"id":"mfg:gcqvn93pm2yu","brand":"mfg","name":"Texaco","address":"MFG Traffic, Traffic Street, Derby","pc":"DE1 2NL","lat":52.918272,"lng":-1.47056,"px":{"E10":156.9,"E5":169.9,"B7":187.9,"SDV":205.9}},{"id":"mfg:gcqvns7sjdh4","brand":"mfg","name":"Jet","address":"MFG Derby, Stores Road, Derby","pc":"DE21 4BD","lat":52.9342,"lng":-1.46712,"px":{"E10":156.9,"E5":169.9,"B7":187.9}},{"id":"mfg:gcqvnsm4fhu1","brand":"mfg","name":"BP","address":"MFG Whittleway, Sir Frank Whittle Road, Derby","pc":"DE21 4RX","lat":52.934,"lng":-1.46521,"px":{"E10":157.9,"E5":175.9,"B7":187.9,"SDV":209.9}},{"id":"mfg:gcqvnwnqmfy0","brand":"mfg","name":"Morrisons","address":"MFG Morrisons Derby, Wheatcroft Way, DERBY","pc":"DE21 4RY","lat":52.944203,"lng":-1.46333,"px":{"E10":153.9,"E5":169.9,"B7":185.9}},{"id":"mfg:gcqvwhnre6ux","brand":"mfg","name":"Morrisons","address":"MFG Morrisons Belper, Chapel Street, BELPER","pc":"DE56 1AR","lat":53.021323,"lng":-1.485412,"px":{"E10":151.7,"E5":169.9,"B7":184.7}},{"id":"mfg:gcqw1dz4krzf","brand":"mfg","name":"Morrisons","address":"MFG Morrisons Leek, Newcastle Road, LEEK","pc":"ST13 8BU","lat":53.101472,"lng":-2.033651,"px":{"E10":152.9,"E5":169.9,"B7":184.9}},{"id":"mfg:gcqyyfmkeeuf","brand":"mfg","name":"Morrisons","address":"MFG Morrisons Chesterfield, Chatsworth Road, CHESTERFIELD","pc":"S40 3DP","lat":53.230926,"lng":-1.453815,"px":{"E10":155.9,"E5":169.9,"B7":185.9,"SDV":195.9}},{"id":"mfg:gcqyzqp90vy0","brand":"mfg","name":"ESSO","address":"MFG Peveril, Sheffield Road, Chesterfield","pc":"S41 8JZ","lat":53.250935,"lng":-1.428869,"px":{"E10":157.9,"E5":175.9,"B7":187.9,"SDV":209.9}},{"id":"mfg:gcqzmf6x9enu","brand":"mfg","name":"Esso","address":"MFG Bradway, 120 Bradway Road, Sheffield","pc":"S17 4QW","lat":53.319328,"lng":-1.50162,"px":{"E10":155.9,"E5":175.9,"B7":186.9,"SDV":209.9}},{"id":"mfg:gcqzqm9hdcfh","brand":"mfg","name":"Morrisons","address":"MFG Morrisons Sheffield Meadowhead, Meadowhead, SHEFFIELD","pc":"S8 7UE","lat":53.336659,"lng":-1.48166,"px":{"E10":152.9,"E5":169.9,"B7":185.9}},{"id":"mfg:gcqzrx1qkt6h","brand":"mfg","name":"Esso","address":"MFG Gleadless, Ridgeway Road, Gleadless / Shefffield","pc":"S12 2JY","lat":53.345218,"lng":-1.42631,"px":{"E10":157.9,"E5":175.9,"B7":189.9,"SDV":209.9}},{"id":"mfg:gcqztdmtb4jr","brand":"mfg","name":"Esso","address":"MFG Banner Cross, Ecclesall Road, Sheffield","pc":"S11 8TP","lat":53.362968,"lng":-1.508553,"px":{"E10":156.9,"E5":175.9,"B7":187.9,"SDV":209.9}},{"id":"mfg:gcqztz22burg","brand":"mfg","name":"Jet","address":"MFG Cutlers, Northfields Road, Crookes / Sheffield","pc":"S10 1QP","lat":53.389587,"lng":-1.504741,"px":{"E10":155.9,"E5":169.9,"B7":187.9,"SDV":205.9}},{"id":"mfg:gcqzvcwb2nj6","brand":"mfg","name":"Morrisons","address":"MFG Morrisons Sheffield Hillsborough, Penistone Raod, SHEFFIELD","pc":"S6 2GY","lat":53.40187,"lng":-1.49585,"px":{"E10":153.9,"E5":169.9,"B7":185.9}},{"id":"mfg:gcqzzfzq6xtt","brand":"mfg","name":"BP","address":"MFG Tinsley, Sheffield Road, Tinsley / Sheffield","pc":"S9 2YL","lat":53.409775,"lng":-1.407165,"px":{"E10":156.9,"E5":175.9,"B7":185.9,"SDV":209.9}},{"id":"mfg:gcr1fymknd94","brand":"mfg","name":"Esso","address":"MFG Lawford Road, 159-183 Lawford Road, Rugby","pc":"CV21 2HX","lat":52.3739,"lng":-1.27791,"px":{"E10":157.9,"E5":175.9,"B7":187.9,"SDV":209.9}},{"id":"mfg:gcr1jxtdzkkb","brand":"mfg","name":"Esso","address":"MFG Junction, London Road, Daventry","pc":"NN11 4EA","lat":52.248725,"lng":-1.15668,"px":{"E10":159.9,"E5":175.9,"B7":189.9,"SDV":209.9}},{"id":"mfg:gcr1mb1uh2dy","brand":"mfg","name":"Shell","address":"MFG Daventry, Admirals Way, Daventry","pc":"NN11 4QB","lat":52.251667,"lng":-1.150975,"px":{"E10":161.9,"E5":179.9,"B7":189.9,"SDV":209.9}},{"id":"mfg:gcr35eem9yzc","brand":"mfg","name":"BP","address":"MFG Farcotton, 19 London Road, Farcotton","pc":"NN4 8AG","lat":52.227238,"lng":-0.89633,"px":{"E10":157.9,"E5":175.9,"B7":187.9,"SDV":209.9}},{"id":"mfg:gcr35svcdsmm","brand":"mfg","name":"Morrisons","address":"MFG Morrisons Northampton Victoria Promenade, 26 Victoria Promenade, NORTHAMPTON","pc":"NN1 1HB","lat":52.233405,"lng":-0.892868,"px":{"E10":154.9,"E5":169.9,"B7":186.9}},{"id":"mfg:gcr3k1sky07j","brand":"mfg","name":"Morrisons","address":"MFG Morrisons Northampton Kettering Road, Kettering Road, NORTHAMPTON","pc":"NN3 6AA","lat":52.260034,"lng":-0.872808,"px":{"E10":154.9,"E5":169.9,"B7":186.9}},{"id":"mfg:gcr450nx88h8","brand":"mfg","name":"Esso","address":"MFG Rugby Leicester Road, Leicester Road, Rugby","pc":"CV21 1DJ","lat":52.3841,"lng":-1.26546,"px":{"E10":157.9,"E5":175.9,"B7":187.9,"SDV":209.9}},{"id":"mfg:gcr4bvc04vpn","brand":"mfg","name":"ESSO","address":"MFG Bond Street, Upper Bond Street, Hinckley","pc":"LE10 1RJ","lat":52.546262,"lng":-1.37179,"px":{"E10":156.9,"E5":175.9,"B7":189.9,"SDV":209.9}},{"id":"mfg:gcr4bx62scwr","brand":"mfg","name":"Morrisons","address":"MFG Morrisons Hinckley, Normandy Way, HINCKLEY","pc":"LE10 1YA","lat":52.554569,"lng":-1.380975,"px":{"E10":155.9,"E5":169.9,"B7":187.9}},{"id":"mfg:gcr4chs81n12","brand":"mfg","name":"ESSO","address":"MFG Burbage Road, Burbage Road, Hinckley","pc":"LE10 2TP","lat":52.5394,"lng":-1.35608,"px":{"E10":156.9,"E5":175.9,"B7":188.9,"SDV":209.9}},{"id":"mfg:gcr4ktw9utkz","brand":"mfg","name":"ESSO","address":"MFG Lutterworth, Market Street, Lutterworth","pc":"LE17 4NF","lat":52.4573,"lng":-1.19937,"px":{"E10":157.9,"E5":175.9,"B7":189.9,"SDV":209.9}},{"id":"mfg:gcr573vvsx0z","brand":"mfg","name":"ESSO","address":"MFG Desford Crossroads, Hinckley Road, Desford Cross Roads","pc":"LE9 9JE","lat":52.613135,"lng":-1.255337,"px":{"E10":159.9,"E5":175.9,"B7":187.9,"SDV":209.9}},{"id":"mfg:gcr5bzhcsjqg","brand":"mfg","name":"Morrisons","address":"MFG Morrisons Coalville, Whitwick Road, COALVILLE","pc":"LE67 3FA","lat":52.729168,"lng":-1.366587,"px":{"E10":154.9,"E5":169.9,"B7":186.9}},{"id":"mfg:gcr5kbvze031","brand":"mfg","name":"ESSO","address":"MFG Meridian, Lubbesthorpe Way North, Watergate / Braunstone","pc":"LE19 1XT","lat":52.607948,"lng":-1.189483,"px":{"E10":156.9,"E5":175.9,"B7":187.9,"SDV":209.9}},{"id":"mfg:gcr5kbyprd2f","brand":"mfg","name":"ESSO","address":"MFG Osiers, Lubbersthorpe Way South, Watergate / Braunstone","pc":"LE19 1XT","lat":52.607916,"lng":-1.188947,"px":{"E10":156.9,"E5":175.9,"B7":187.9,"SDV":209.9}},{"id":"mfg:gcr5q5rky9vf","brand":"mfg","name":"Morrisons","address":"MFG Morrisons Leicester, Almond Road, LEICESTER","pc":"LE2 7LT","lat":52.621217,"lng":-1.132335,"px":{"E10":153.9,"E5":169.9,"B7":183.9}},{"id":"mfg:gcr5qr6sugex","brand":"mfg","name":"Jet","address":"MFG Flyover, 216 Belgrave Gate, Leicester","pc":"LE1 3XP","lat":52.6432,"lng":-1.12795,"px":{"E10":157.9,"E5":169.9,"B7":188.9,"SDV":205.9}},{"id":"mfg:gcr5s8gq5f7s","brand":"mfg","name":"Morrisons","address":"MFG Morrisons Glenfield, Station Road, LEICESTER","pc":"LE3 8BQ","lat":52.651647,"lng":-1.203867,"px":{"E10":156.9,"E5":169.9,"B7":188.9}},{"id":"mfg:gcr5w7c9k024","brand":"mfg","name":"BP","address":"MFG St. Pauls, 400 Loughborough Road, Birstall","pc":"LE4 4BH","lat":52.6673,"lng":-1.12936,"px":{"E10":159.9,"E5":175.9,"B7":189.9,"SDV":209.9}},{"id":"mfg:gcr6p69c14ur","brand":"mfg","name":"Morrisons","address":"MFG Morrisons Kettering, Northfield Avenue, KETTERING","pc":"NN16 8TB","lat":52.396733,"lng":-0.733632,"px":{"E10":150.7,"E5":169.9,"B7":184.7}},{"id":"mfg:gcr6x85hue30","brand":"mfg","name":"Morrisons","address":"MFG Morrisons Corby, Oakley Road, CORBY","pc":"NN18 8LH","lat":52.471536,"lng":-0.720783,"px":{"E10":152.9,"E5":169.9,"B7":184.9}},{"id":"mfg:gcr980uj26np","brand":"mfg","name":"Morrisons","address":"MFG Morrisons Wellingborough, Oxford Street, WELLINGBOROUGH","pc":"NN8 4JJ","lat":52.299955,"lng":-0.697613,"px":{"E10":154.9,"E5":169.9,"B7":186.9}},{"id":"mfg:gcrc12v596u3","brand":"mfg","name":"BP","address":"MFG Eaton Socon, Great North Road, Eaton Socon  St Neots","pc":"PE19 8EJ","lat":52.211767,"lng":-0.289705,"px":{"E10":154.9,"E5":175.9,"B7":186.9,"SDV":209.9}},{"id":"mfg:gcrcu8d1xjgm","brand":"mfg","name":"BP","address":"MFG Huntingdon, March Road, Hartford","pc":"PE28 2DN","lat":52.341903,"lng":-0.150757,"px":{"E10":159.9,"E5":175.9,"B7":189.9,"SDV":209.9}},{"id":"mfg:gcrcwws7n5xk","brand":"mfg","name":"Morrisons","address":"MFG Morrisons St Ives, Harrison Way/A1123, ST IVES","pc":"PE27 4NB","lat":52.331162,"lng":-0.059814,"px":{"E10":156.9,"E5":169.9,"B7":185.9,"SDV":195.9}},{"id":"mfg:gcrd8fem9dgq","brand":"mfg","name":"Esso","address":"MFG Corby, Geddington Road, Corby","pc":"NN18 8AA","lat":52.485396,"lng":-0.665634,"px":{"E10":155.9,"E5":175.9,"B7":186.9,"SDV":159.9}},{"id":"mfg:gcrdwq94qqw1","brand":"mfg","name":"ESSO","address":"MFG Country, Oundle Road, Warmington","pc":"PE8 6TZ","lat":52.50683,"lng":-0.426817,"px":{"E10":161.9,"E5":175.9,"B7":192.9,"SDV":209.9}},{"id":"mfg:gcre1q6gfdrz","brand":"mfg","name":"ESSO","address":"MFG Morcott, Glaston Road, Morcott","pc":"LE15 9DL","lat":52.593583,"lng":-0.644299,"px":{"E10":157.9,"E5":175.9,"B7":189.9,"SDV":209.9}},{"id":"mfg:gcret3teqns0","brand":"mfg","name":"Morrisons","address":"MFG Morrisons Stamford, Uffington Road, STAMFORD","pc":"PE9 2FT","lat":52.655317,"lng":-0.464596,"px":{"E10":155.9,"E5":169.9,"B7":183.9}},{"id":"mfg:gcrfgjsej0z8","brand":"mfg","name":"Morrisons","address":"MFG Morrisons Stanground, Bellona Drive, PETERBOROUGH","pc":"PE2 8GP","lat":52.54538,"lng":-0.213322,"px":{"E10":154.9,"E5":169.9,"B7":183.9,"SDV":193.9}},{"id":"mfg:gcrg1zvd16n3","brand":"mfg","name":"Morrisons","address":"MFG Morrisons Peterborough, Lincoln Road, PETERBOROUGH","pc":"PE4 6AL","lat":52.60152,"lng":-0.267043,"px":{"E10":154.9,"E5":169.9,"B7":182.9,"SDV":192.9}},{"id":"mfg:gcrg40ewu85j","brand":"mfg","name":"Esso","address":"MFG Woodston, Oundle Road, Woodston","pc":"PE2 9QP","lat":52.5625,"lng":-0.258668,"px":{"E10":157.9,"E5":175.9,"B7":187.9,"SDV":209.9}},{"id":"mfg:gcrg4mh8bf4t","brand":"mfg","name":"Texaco","address":"MFG Kingfisher, 214-228 Lincoln Road, Peterborough","pc":"PE1 2NE","lat":52.5862,"lng":-0.24647,"px":{"E10":157.9,"E5":169.9,"B7":186.9,"SDV":205.9}},{"id":"mfg:gcrg8x3ppp1t","brand":"mfg","name":"BP","address":"PRL Market Deeping, Peterborough Road, Langtoft","pc":"PE6 9LA","lat":52.68755,"lng":-0.327914,"px":{"E10":133.9,"E5":159.9,"B7":143.9,"SDV":165.9}},{"id":"mfg:gcrgb2nq7ycx","brand":"mfg","name":"BP","address":"MFG Market Deeping, Peterborough Road, Langtoft","pc":"PE6 9LA","lat":52.69154,"lng":-0.33183,"px":{"E10":156.9,"E5":175.9,"B7":189.9,"SDV":209.9}},{"id":"mfg:gcrh4sdm02b4","brand":"mfg","name":"Esso","address":"MFG Ashby Road, Ashby Road, Loughborough","pc":"LE12 9BE","lat":52.759957,"lng":-1.293286,"px":{"E10":157.9,"E5":175.9,"B7":189.9,"SDV":209.9}},{"id":"mfg:gcrh4wqvjyu9","brand":"mfg","name":"ESSO","address":"MFG Shepshed, Leicester Road, Shepshed","pc":"LE12 9DQ","lat":52.769602,"lng":-1.286864,"px":{"E10":157.9,"E5":175.9,"B7":189.9,"SDV":209.9}},{"id":"mfg:gcrh5kgv7yvb","brand":"mfg","name":"BP","address":"MFG Charnwood, Ashby Road, Loughborough","pc":"LE11 3QU","lat":52.761405,"lng":-1.258109,"px":{"E10":159.9,"E5":175.9,"B7":189.9,"SDV":209.9}},{"id":"mfg:gcrh7b4wkscr","brand":"mfg","name":"Morrisons","address":"MFG Morrisons Loughborough, Gorse Covert Centre, LOUGHBOROUGH","pc":"LE11 4RZ","lat":52.77942,"lng":-1.237827,"px":{"E10":153.9,"E5":169.9,"B7":186.9}},{"id":"mfg:gcrj664b27j0","brand":"mfg","name":"Morrisons","address":"MFG Morrisons Ilkeston, Nottingham Road, ILKESTON","pc":"DE7 5NN","lat":52.965147,"lng":-1.303579,"px":{"E10":150.9,"E5":169.9,"B7":184.9,"SDV":194.9}},{"id":"mfg:gcrj7vwfg0rg","brand":"mfg","name":"ESSO","address":"MFG Woodhouse, Woodhouse Way, Nuthall / Nottingham","pc":"NG16 1RQ","lat":52.984788,"lng":-1.232046,"px":{"E10":155.9,"E5":175.9,"B7":189.9,"SDV":209.9}},{"id":"mfg:gcrjd5y7qxmm","brand":"mfg","name":"Morrisons","address":"MFG Morrisons Eastwood, Derby Road, NOTTINGHAM","pc":"NG16 3NT","lat":53.019244,"lng":-1.30949,"px":{"E10":151.7,"E5":169.9,"B7":184.7}},{"id":"mfg:gcrjk9mmreug","brand":"mfg","name":"Texaco","address":"MFG Beechdale, 337 Beechdale Road, Nottingham","pc":"NG8 3FF","lat":52.96189,"lng":-1.200958,"px":{"E10":155.9,"E5":169.9,"B7":186.9,"SDV":205.9}},{"id":"mfg:gcrjkgyfmf6k","brand":"mfg","name":"ESSO","address":"MFG Nuthall Road, Nuthall Road, Nottingham","pc":"NG8 5BU","lat":52.9751,"lng":-1.18799,"px":{"E10":154.9,"E5":175.9,"B7":186.9,"SDV":209.9}},{"id":"mfg:gcrjktbpe7xg","brand":"mfg","name":"BP","address":"MFG St. Marys, Nuthall Road, Cinderhill","pc":"NG8 6AX","lat":52.986994,"lng":-1.208346,"px":{"E10":155.9,"E5":175.9,"B7":186.9,"SDV":209.9}},{"id":"mfg:gcrjmj8upgg9","brand":"mfg","name":"Jet","address":"MFG Old Basford, Mill Street, Old Basford","pc":"NG6 0JW","lat":52.985021,"lng":-1.185156,"px":{"E10":154.9,"E5":169.9,"B7":186.9}},{"id":"mfg:gcrjnfmxhwd5","brand":"mfg","name":"Morrisons","address":"MFG Morrisons Gamston, Ambleside, NOTTINGHAM","pc":"NG2 6PS","lat":52.923753,"lng":-1.10187,"px":{"E10":154.9,"E5":169.9,"B7":185.9}},{"id":"mfg:gcrjpkxg5wwg","brand":"mfg","name":"Esso","address":"MFG Pierrepoint, Radcliffe Road, Nottingham","pc":"NG12 2LF","lat":52.935426,"lng":-1.076844,"px":{"E10":157.9,"E5":175.9,"B7":187.9,"SDV":209.9}},{"id":"mfg:gcrjq00pmw80","brand":"mfg","name":"Esso","address":"MFG Huntingdon Street, 320 Huntingdon Street, Nottingham","pc":"NG1 3LH","lat":52.955381,"lng":-1.142342,"px":{"E10":157.9,"E5":175.9,"B7":189.9,"SDV":209.9}},{"id":"mfg:gcrjr9nrn82z","brand":"mfg","name":"Morrisons","address":"MFG Morrisons Netherfield, Victoria Park Way, NOTTINGHAM","pc":"NG4 2PA","lat":52.960799,"lng":-1.067797,"px":{"E10":153.9,"E5":169.9,"B7":183.9}},{"id":"mfg:gcrjs3qfttw2","brand":"mfg","name":"Esso","address":"MFG Sellers Wood, Camberley Road, Nottingham","pc":"NG6 8GE","lat":53.005372,"lng":-1.209968,"px":{"E10":154.9,"E5":175.9,"B7":186.9,"SDV":209.9}},{"id":"mfg:gcrjsfhfh6x8","brand":"mfg","name":"Morrisons","address":"MFG Morrisons Bulwell, Springfield Retail Park, NOTTINGHAM","pc":"NG6 8EP","lat":53.00939,"lng":-1.190794,"px":{"E10":150.9,"E5":169.9,"B7":184.9}},{"id":"mfg:gcrjwk2b7mb6","brand":"mfg","name":"ESSO","address":"MFG Maid Marion, Mansfield Road, Redhill / Nottingham","pc":"NG5 8PG","lat":53.021467,"lng":-1.130422,"px":{"E10":155.9,"E5":175.9,"B7":187.9,"SDV":209.9}},{"id":"mfg:gcrm4ybdwzs5","brand":"mfg","name":"Esso","address":"MFG Kings Garage, Grantham Road, Bingham","pc":"NG13 8DF","lat":52.947705,"lng":-0.932856,"px":{"E10":157.9,"E5":175.9,"B7":187.9,"SDV":209.9}},{"id":"mfg:gcrmre2d97pd","brand":"mfg","name":"ESSO","address":"MFG Foston, A1 Northbound, Foston  Grantham","pc":"NG32 2JS","lat":52.9724,"lng":-0.724347,"px":{"E10":159.9,"E5":175.9,"B7":191.9,"SDV":209.9}},{"id":"mfg:gcrmvxjjqqmt","brand":"mfg","name":"ESSO","address":"MFG Cow Lane, Northgate, Newark","pc":"NG24 1HD","lat":53.08138,"lng":-0.805846,"px":{"E10":157.9,"E5":175.9,"B7":189.9,"SDV":209.9}},{"id":"mfg:gcrn0204krqf","brand":"mfg","name":"BP","address":"MFG Swanwick, Old Swanwick Colliery Road, Alfreton","pc":"DE55 1HJ","lat":53.086363,"lng":-1.395072,"px":{"E10":159.9,"E5":175.9,"B7":191.9,"SDV":209.9}},{"id":"mfg:gcrnbr174vqx","brand":"mfg","name":"Jet","address":"MFG Brimington, High Street, Chesterfield","pc":"S43 1DE","lat":53.25677,"lng":-1.39342,"px":{"E10":159.9,"E5":169.9,"B7":187.9,"SDV":205.9}},{"id":"mfg:gcrnk0bwrcz0","brand":"mfg","name":"Morrisons","address":"MFG Morrisons Mansfield, Sutton Road, NOTTINGHAM","pc":"NG18 5HL","lat":53.135085,"lng":-1.22944,"px":{"E10":152.9,"E5":169.9,"B7":184.9}},{"id":"mfg:gcrnkkbvzzp2","brand":"mfg","name":"ESSO","address":"MFG Eagle, Chesterfield Road, Nth Mansfield","pc":"NG19 7JA","lat":53.157,"lng":-1.21811,"px":{"E10":156.9,"E5":175.9,"B7":187.9,"SDV":209.9}},{"id":"mfg:gcrnkvxsxqn8","brand":"mfg","name":"BP","address":"MFG Leeming Lane, 43-45 Leeming Lane, Mansfield","pc":"NG19 9BA","lat":53.1609,"lng":-1.18689,"px":{"E10":156.9,"E5":175.9,"B7":187.9,"SDV":209.9}},{"id":"mfg:gcrnkyhtvvwg","brand":"mfg","name":"Morrisons","address":"MFG Morrisons Mansfield Woodhouse, Welbeck Road, MANSFIELD","pc":"NG19 9LA","lat":53.163859,"lng":-1.191074,"px":{"E10":152.9,"E5":169.9,"B7":184.9}},{"id":"mfg:gcrp11n6vj5p","brand":"mfg","name":"Morrisons","address":"MFG Morrisons Staveley, Barnfield Close, CHESTERFIELD","pc":"S43 3UL","lat":53.267712,"lng":-1.353503,"px":{"E10":155.9,"E5":169.9,"B7":185.9}},{"id":"mfg:gcrp37q55hfh","brand":"mfg","name":"Morrisons","address":"MFG Morrisons Sheffield Halfway, 1 Oxclose Park Road North, SHEFFIELD","pc":"S20 8GN","lat":53.324058,"lng":-1.342947,"px":{"E10":152.9,"E5":169.9,"B7":185.9}},{"id":"mfg:gcrp8z1k10x0","brand":"mfg","name":"Morrisons","address":"MFG Morrisons Catcliffe, Poplar Way, ROTHERHAM","pc":"S60 5TR","lat":53.388751,"lng":-1.371522,"px":{"E10":152.9,"E5":169.9,"B7":185.9}},{"id":"mfg:gcrpbysbcvvn","brand":"mfg","name":"Jet","address":"MFG Masbrough, Masbrough Street, Rotherham","pc":"S60 1HT","lat":53.429421,"lng":-1.366686,"px":{"E10":154.9,"E5":169.9,"B7":186.9,"SDV":205.9}},{"id":"mfg:gcrpcq0w7p37","brand":"mfg","name":"Jet","address":"MFG Jolly Miller, Welgate, Clifton / Rotherham","pc":"S60 2PE","lat":53.427626,"lng":-1.350501,"px":{"E10":155.9,"E5":169.9,"B7":187.9,"SDV":205.9}},{"id":"mfg:gcrpgmntx254","brand":"mfg","name":"Morrisons","address":"MFG Morrisons Rotherham Bramley, Moorhead Way, ROTHERHAM","pc":"S66 1YY","lat":53.421965,"lng":-1.254186,"px":{"E10":153.9,"E5":169.9,"B7":185.9}},{"id":"mfg:gcrpq8mxwdg6","brand":"mfg","name":"Morrisons","address":"MFG Morrisons Worksop, Kilton Road, WORKSOP","pc":"S80 2DJ","lat":53.30834,"lng":-1.112769,"px":{"E10":155.9,"E5":169.9,"B7":186.9,"SDV":196.9}},{"id":"mfg:gcrq8su87yg1","brand":"mfg","name":"ESSO","address":"MFG Ollerton, Old Rufford Road, Ollerton","pc":"NG22 9DT","lat":53.2,"lng":-1.02637,"px":{"E10":156.9,"E5":175.9,"B7":189.9,"SDV":209.9}},{"id":"mfg:gcrqn1vffhre","brand":"mfg","name":"Esso","address":"MFG Interchange, Lincoln Road, Winthorpe / Newark","pc":"NG24 2NY","lat":53.096046,"lng":-0.783023,"px":{"E10":159.9,"E5":175.9,"B7":192.9,"SDV":209.9}},{"id":"mfg:gcrr6eu3ks57","brand":"mfg","name":"Bp","address":"MFG Moorgate, 48 Moorgate, Retford","pc":"DN22 6RN","lat":53.3265,"lng":-0.93879,"px":{"E10":157.9,"E5":175.9,"B7":187.9,"SDV":209.9}},{"id":"mfg:gcrr6euknh9s","brand":"mfg","name":"Morrisons","address":"MFG Morrisons Retford, Moorgate, RETFORD","pc":"DN22 6RN","lat":53.326975,"lng":-0.938728,"px":{"E10":155.9,"E5":169.9,"B7":186.9}},{"id":"mfg:gcrrxp2ju1sy","brand":"mfg","name":"Morrisons","address":"MFG Morrisons Gainsborough, Heapham Road South, GAINSBOROUGH","pc":"DN21 1XY","lat":53.390431,"lng":-0.746892,"px":{"E10":151.9,"E5":169.9,"B7":185.9,"SDV":195.9}},{"id":"mfg:gcrs6j1ewdmt","brand":"mfg","name":"BP","address":"MFG Colsterworth, A1 Northbound, Grantham","pc":"NG33 5JJ","lat":52.8064,"lng":-0.612888,"px":{"E10":159.9,"E5":175.9,"B7":191.9,"SDV":209.9}},{"id":"mfg:gcrscr8vb2xg","brand":"mfg","name":"ESSO","address":"MFG Archways, Harlaxton Road, Grantham","pc":"NG31 7AB","lat":52.9084,"lng":-0.647142,"px":{"E10":156.9,"E5":175.9,"B7":189.9,"SDV":209.9}},{"id":"mfg:gcrscwy6rkkq","brand":"mfg","name":"BP","address":"MFG Somerby Hill, Bridge End Road, Grantham","pc":"NG31 7ET","lat":52.9037,"lng":-0.628307,"px":{"E10":156.9,"E5":175.9,"B7":187.9,"SDV":209.9}},{"id":"mfg:gcrt21y7rjph","brand":"mfg","name":"ESSO","address":"MFG Toll Bar, A1 South Bound, Marston","pc":"NG32 2HT","lat":52.9643,"lng":-0.694232,"px":{"E10":159.9,"E5":175.9,"B7":191.9,"SDV":209.9}},{"id":"mfg:gcrukv2qzck8","brand":"mfg","name":"Morrisons","address":"MFG Morrisons Spalding Pinchbeck, Wardentree Lane, SPALDING","pc":"PE11 3UG","lat":52.808325,"lng":-0.14214,"px":{"E10":153.9,"E5":169.9,"B7":184.9,"SDV":194.9}},{"id":"mfg:gcruyhhp8jru","brand":"mfg","name":"BP","address":"MFG Sutterton, Holbeach Road, A16/A17 Sutterton Boston","pc":"PE20 2LG","lat":52.8895,"lng":-0.082387,"px":{"E10":156.9,"E5":175.9,"B7":189.9,"SDV":209.9}},{"id":"mfg:gcrvh7vvw853","brand":"mfg","name":"ESSO","address":"MFG Bicker Bar, Donnington Road, Bicker  Boston","pc":"PE20 3AN","lat":52.9317,"lng":-0.156615,"px":{"E10":156.9,"E5":175.9,"B7":189.9,"SDV":209.9}},{"id":"mfg:gcrw9ypn8h7r","brand":"mfg","name":"BP","address":"MFG Doddington, A64 Lincoln Ring Road, Lincoln","pc":"LN6 3SE","lat":53.207927,"lng":-0.616603,"px":{"E10":159.9,"E5":175.9,"B7":189.9,"SDV":209.9}},{"id":"mfg:gcrwg35wskrk","brand":"mfg","name":"Morrisons","address":"MFG Morrisons Lincoln, Tritton Road, LINCOLN","pc":"LN6 7QL","lat":53.224406,"lng":-0.555304,"px":{"E10":157.9,"E5":169.9,"B7":187.9}},{"id":"mfg:gcwbjttq5bb7","brand":"mfg","name":"Jet","address":"MFG Crown, Penistone Road, Sheffield","pc":"S35 4JB","lat":53.468747,"lng":-1.508742,"px":{"E10":156.9,"E5":169.9,"B7":187.9,"SDV":205.9}},{"id":"mfg:gcwbn9w8ue8k","brand":"mfg","name":"Morrisons","address":"MFG Morrisons Sheffield Ecclesfield, 299 The Common, SHEFFIELD","pc":"S35 9WJ","lat":53.445888,"lng":-1.463048,"px":{"E10":153.9,"E5":169.9,"B7":185.9}},{"id":"mfg:gcwbnk7m6y8v","brand":"mfg","name":"Jet","address":"MFG Morestyle, 235 Burncross Road, Chapeltown / Sheffield","pc":"S35 1RZ","lat":53.461783,"lng":-1.478572,"px":{"E10":156.9,"E5":169.9,"B7":186.9,"SDV":205.9}},{"id":"mfg:gcwbqdtspk4u","brand":"mfg","name":"Esso","address":"MFG Hoyland Common, Sheffield Rd, Barnsley","pc":"S74 0DP","lat":53.495887,"lng":-1.4643,"px":{"E10":157.9,"E5":175.9,"B7":189.9,"SDV":209.9}},{"id":"mfg:gcwbwk3thmhr","brand":"mfg","name":"Morrisons","address":"MFG Morrisons Barnsley, Lower Thomas Street, BARNSLEY","pc":"S70 1LQ","lat":53.549623,"lng":-1.480906,"px":{"E10":154.9,"E5":169.9,"B7":185.9}},{"id":"mfg:gcx013hnv01y","brand":"mfg","name":"Morrisons","address":"MFG Morrisons Rotherham Parkgate, Rotherham Road, ROTHERHAM","pc":"S60 1TG","lat":53.444153,"lng":-1.345608,"px":{"E10":153.9,"E5":169.9,"B7":185.9,"SDV":195.9}},{"id":"mfg:gcx02kuf3puf","brand":"mfg","name":"Morrisons","address":"MFG Morrisons Brampton, Corton Wood, BARNSLEY","pc":"S73 0SX","lat":53.507966,"lng":-1.388691,"px":{"E10":154.9,"E5":169.9,"B7":185.9}},{"id":"mfg:gcx0635qhdtn","brand":"mfg","name":"Jet","address":"MFG Swinton, Bridge Street, Swinton / Rotherham","pc":"S64 8AP","lat":53.487983,"lng":-1.30271,"px":{"E10":157.9,"E5":169.9,"B7":187.9,"SDV":205.9}},{"id":"mfg:gcx0qe07dzyh","brand":"mfg","name":"Morrisons","address":"MFG Morrisons Doncaster Balby, Woodfield Way, DONCASTER","pc":"DN4 8SJ","lat":53.498568,"lng":-1.120136,"px":{"E10":152.9,"E5":169.9,"B7":186.9}},{"id":"mfg:gcx0qj8k65fg","brand":"mfg","name":"Jet","address":"MFG Doncaster, Balby Road, Doncaster","pc":"DN4 0JL","lat":53.512408,"lng":-1.142145,"px":{"E10":155.9,"E5":169.9,"B7":186.9,"SDV":205.9}},{"id":"mfg:gcx0qnvqq281","brand":"mfg","name":"Esso","address":"MFG Trafford Way, Trafford Way, Doncaster","pc":"DN1 3BX","lat":53.5196,"lng":-1.1351,"px":{"E10":156.9,"E5":175.9,"B7":188.9,"SDV":209.9}},{"id":"mfg:gcx0rsckkc13","brand":"mfg","name":"Jet","address":"MFG Cantley, Cantley Lane, Doncaster","pc":"DN4 6NN","lat":53.508273,"lng":-1.074738,"px":{"E10":154.9,"E5":169.9,"B7":187.9,"SDV":205.9}},