[{"id":"asda:gcdt4k6t0278","brand":"asda","name":"Asda","address":"Derrychara Rd, Enniskillen","pc":"BT74 6JG","lat":54.3413,"lng":-7.63324,"px":{"E10":151.7,"B7":184.7}},{"id":"asda:gcdxyj9wh5qe","brand":"asda","name":"Asda","address":"2 Branch Road, Strabane","pc":"BT82 8EQ","lat":54.830803,"lng":-7.471151,"px":{"E10":153.9,"B7":186.9}},{"id":"asda:gcdy9dgsrd7p","brand":"asda","name":"Asda","address":"31 Dromore Road, Omagh","pc":"BT78 1QZ","lat":54.59587,"lng":-7.31181,"px":{"E10":149.9,"B7":179.9}},{"id":"asda:gcemts6khuyy","brand":"asda","name":"Asda","address":"Bridge Street, Portadown","pc":"BT63 5AQ","lat":54.426234,"lng":-6.437165,"px":{"E10":149.7,"B7":184.7}},{"id":"asda:gceny991w6cu","brand":"asda","name":"Asda","address":"Sweep Road, Cookstown","pc":"BT80 8JR","lat":54.63502,"lng":-6.74608,"px":{"E10":153.7,"B7":185.7}},{"id":"asda:gcexrrxsjt5h","brand":"asda","name":"Asda","address":"Park Street, Ballyclare","pc":"BT39 9DQ","lat":54.753845,"lng":-5.99897,"px":{"E10":154.9,"B7":185.9}},{"id":"asda:gceyw41jstg5","brand":"asda","name":"Asda","address":"Ards Shopping Centre - Circular Road, Newtownards","pc":"BT23 4EU","lat":54.59204,"lng":-5.71132,"px":{"E10":151.7,"B7":185.7}},{"id":"asda:gceyzn84ugbk","brand":"asda","name":"Asda","address":"89-105 Main St, Bangor","pc":"BT20 4SD","lat":54.660222,"lng":-5.668741,"px":{"E10":152.7,"B7":186.7}},{"id":"asda:gcg38edgghbm","brand":"asda","name":"Asda","address":"1 Ring Rd, Coleraine","pc":"BT52 1QP","lat":55.127318,"lng":-6.653809,"px":{"E10":148.7,"B7":181.7}},{"id":"asda:gcg81k9xve76","brand":"asda","name":"Asda Express","address":"121 Broughshane Street, Ballymena","pc":"BT43 6EE","lat":54.869817,"lng":-6.270892,"px":{"E10":153.9,"E5":157.9,"B7":184.9}},{"id":"sainsburys:gcenn5ffp9z4","brand":"sainsburys","name":"Sainsbury's","address":"Unit 14, The Oaks Centre, Oaks Road","pc":"BT71 4NA","lat":54.51314,"lng":-6.76347,"px":{"E10":149.9,"E5":161.9,"B7":181.9}},{"id":"sainsburys:gcewn005qhs4","brand":"sainsburys","name":"Sainsbury's","address":"5 Sprucefield Park","pc":"BT27 5UQ","lat":54.49277,"lng":-6.06419,"px":{"E10":147.9,"B7":178.9}},{"id":"sainsburys:gcewxbqt8q3m","brand":"sainsburys","name":"Sainsbury's","address":"Unit 28, Kennedy Centre, Falls Road","pc":"BT11 9AE","lat":54.58243,"lng":-5.97861,"px":{"E10":149.9,"E5":161.9,"B7":176.9}},{"id":"sainsburys:gcey3t4xggbm","brand":"sainsburys","name":"Sainsbury's","address":"Forestside Shopping Centre, Upper Galwally","pc":"BT8 6FX","lat":54.56495,"lng":-5.90705,"px":{"E10":149.9,"E5":161.9,"B7":177.9}},{"id":"sainsburys:gceyf8wcf5ds","brand":"sainsburys","name":"Sainsbury's","address":"Holywood Exchange, 302 Airport Road West","pc":"BT3 9EJ","lat":54.62709,"lng":-5.85734,"px":{"E10":149.9,"E5":161.9,"B7":180.9}},{"id":"sainsburys:gceyygyumz5b","brand":"sainsburys","name":"Sainsbury's","address":"10 Balloo Link","pc":"BT19 7HJ","lat":54.64539,"lng":-5.67041,"px":{"E10":149.9,"E5":161.9,"B7":180.9}},{"id":"sainsburys:gcg384nx617g","brand":"sainsburys","name":"Sainsbury's","address":"10 Riverside Regional Centre","pc":"BT51 3QQ","lat":55.11966,"lng":-6.67067,"px":{"E10":148.9,"E5":160.9,"B7":181.9}},{"id":"sainsburys:gcg8170zz218","brand":"sainsburys","name":"Sainsbury's","address":"4 Braidwater Retail Park, Larne Road Link","pc":"BT42 3AG","lat":54.86156,"lng":-6.27185,"px":{"E10":149.9,"E5":161.9,"B7":179.9}},{"id":"tesco:gcemwx8193rx","brand":"tesco","name":"TESCO","address":"2 Marlborough Retail Park Craigavon","pc":"BT64 1AG","lat":54.445761,"lng":-6.393979,"px":{"E10":149.9,"B7":180.9}},{"id":"tesco:gcenjc8tfhfp","brand":"tesco","name":"TESCO","address":"Beech Valley Dungannon","pc":"BT71 7BN","lat":54.501441,"lng":-6.777789,"px":{"E10":149.9,"B7":180.9}},{"id":"tesco:gcenykg8yny8","brand":"tesco","name":"TESCO","address":"Orritor Rd Cookstown","pc":"BT80 8BH","lat":54.650281,"lng":-6.751519,"px":{"E10":153.9,"B7":182.9}},{"id":"tesco:gcet15pv451m","brand":"tesco","name":"TESCO","address":"Bridgewater Retail Park Banbridge","pc":"BT32 4LF","lat":54.333761,"lng":-6.273449,"px":{"E10":149.9,"B7":180.9}},{"id":"tesco:gcet1mq58df2","brand":"tesco","name":"TESCO","address":"25a Castlewellan Road Banbridge","pc":"BT32 4AX","lat":54.345861,"lng":-6.264929,"px":{"E10":150.9,"B7":180.9}},{"id":"tesco:gcewnhhg6k72","brand":"tesco","name":"TESCO","address":"Bentrim Rd Lisburn","pc":"BT28 2GB","lat":54.514741,"lng":-6.057829,"px":{"E10":150.9,"B7":180.9}},{"id":"tesco:gcex68s5hktr","brand":"tesco","name":"TESCO","address":"28 Castle Way Antrim","pc":"BT41 4BU","lat":54.715201,"lng":-6.212579,"px":{"E10":149.9,"B7":181.9}},{"id":"tesco:gcey368dnjvy","brand":"tesco","name":"TESCO","address":"Tesco Stores Ltd 170 Newtownbreda Road Belfast","pc":"BT8 6PZ","lat":54.550241,"lng":-5.920679,"px":{"E10":149.9,"B7":180.9}},{"id":"tesco:gcey9jk8kmu2","brand":"tesco","name":"TESCO","address":"100-150 York St Belfast","pc":"BT15 1WA","lat":54.608991,"lng":-5.926249,"px":{"E10":149.9,"B7":181.9}},{"id":"tesco:gceycnm8e7sh","brand":"tesco","name":"TESCO","address":"Tesco Stores Ltd Unit 1 Abbey Retail Park Church Road Newtownabbey","pc":"BT36 7GU","lat":54.658461,"lng":-5.924919,"px":{"E10":149.9,"B7":180.9}},{"id":"tesco:gceydxnpdk6f","brand":"tesco","name":"TESCO","address":"Knocknagoney Road Belfast","pc":"BT4 2PW","lat":54.619841,"lng":-5.858359,"px":{"E10":149.9,"B7":180.9}},{"id":"tesco:gceyw92f23yh","brand":"tesco","name":"TESCO","address":"Tesco 1 Castlebawn Drive Newtownards","pc":"BT23 4XE","lat":54.587341,"lng":-5.689869,"px":{"E10":149.9,"B7":180.9}},{"id":"tesco:gceyymed79wm","brand":"tesco","name":"TESCO","address":"Tesco Garage Unit 19 Springhill Retail Park Bangor","pc":"BT19 1ND","lat":54.654631,"lng":-5.696939,"px":{"E10":149.9,"B7":180.9}},{"id":"tesco:gceyzk1q91xy","brand":"tesco","name":"TESCO","address":"Unit 1 Bloomfield Shopping Centre South Circular Road Bangor","pc":"BT19 7HB","lat":54.647121,"lng":-5.656189,"px":{"E10":151.9,"B7":180.9}},{"id":"tesco:gcez03d5suj1","brand":"tesco","name":"TESCO","address":"Jubilee Way Glengormley","pc":"BT36 5HH","lat":54.676831,"lng":-5.962619,"px":{"E10":150.9,"B7":180.9}},{"id":"tesco:gcez78y2q4eh","brand":"tesco","name":"TESCO","address":"Minorca Place Carrickfergus","pc":"BT38 8AU","lat":54.716091,"lng":-5.813909,"px":{"E10":149.9,"B7":180.9}},{"id":"tesco:gcfbcfx158h6","brand":"tesco","name":"TESCO","address":"Lisnagelvin Shopping Centre Lisnagelvin Road Londonderry","pc":"BT47 6DA","lat":54.989491,"lng":-7.296139,"px":{"E10":153.9,"B7":181.9}},{"id":"tesco:gcg14msptve4","brand":"tesco","name":"TESCO","address":"21 Broad Rd Limavady","pc":"BT49 0QH","lat":55.051061,"lng":-6.926629,"px":{"E10":149.9,"B7":181.9}},{"id":"tesco:gcg81d29xn2d","brand":"tesco","name":"TESCO","address":"Larne Road Ballymena","pc":"BT42 3HB","lat":54.856401,"lng":-6.261219,"px":{"E10":149.9,"B7":181.9}}]